"Frame","Lat","Lon","Alt","TerrainElevation","Yaw","Pitch","Roll","GimYaw","GimPitch","GimRoll","Timestamp","BoundingBoxClass","BoundingBoxCentre_X","BoundingBoxCentre_Y","BoundingBox_Width%","BoundingBox_Height%"
"1","","","","","","","","","","","","1","0.745573","0.815972","0.0515625","0.0837963"
"2","","","","","","","","","","","","1","0.742708","0.799306","0.0520833","0.0976852"
"3","","","","","","","","","","","","1","0.734896","0.774769","0.0463542","0.0791667"
"4","","","","","","","","","","","","1","0.725521","0.751852","0.046875","0.0814815"
"5","","","","","","","","","","","","1","0.717057","0.722685","0.0554687","0.087037"
"5","","","","","","","","","","","","1","0.130859","0.831944","0.0513021","0.0962963"
"6","50.4261505","12.529836","893.0","829.0015258789062","155.02","21.16","8.95","141.83","-34.27","0.0","0.3670333333333333","1","0.705339","0.688889","0.0549479","0.0925926"
"7","50.4261505","12.529836","893.0","829.0015258789062","155.02","21.16","8.95","141.83","-34.27","0.0","0.3670333333333333","1","0.692578","0.654167","0.0502604","0.0935185"
"8","50.4261505","12.529836","893.0","829.0015258789062","155.02","21.16","8.95","141.83","-34.27","0.0","0.3670333333333333","1","0.680859","0.621991","0.0507812","0.0837963"
"9","50.4261505","12.529836","893.0","829.0015258789062","155.02","21.16","8.95","141.83","-34.27","0.0","0.3670333333333333","1","0.667318","0.590278","0.0523437","0.0898148"
"10","50.4261505","12.529836","893.0","829.0015258789062","155.02","21.16","8.95","141.83","-34.27","0.0","0.3670333333333333","1","0.653516","0.552083","0.0481771","0.0856481"
"11","50.4261505","12.529836","893.0","829.0015258789062","155.02","21.16","8.95","141.83","-34.27","0.0","0.3670333333333333","1","0.638932","0.515278","0.0460938","0.0787037"
"12","50.4261503","12.5298354","893.0","829.0015258789062","167.86","15.57","5.93","150.72","-44.34","0.0","0.6006","1","0.624349","0.479167","0.0460938","0.0777778"
"14","50.4261503","12.5298354","893.0","829.0015258789062","167.86","15.57","5.93","150.72","-44.34","0.0","0.6006","1","0.59375","0.393056","0.0505208","0.0861111"
"15","50.4261503","12.5298354","893.0","829.0015258789062","167.86","15.57","5.93","150.72","-44.34","0.0","0.6006","1","0.888932","0.953704","0.0658854","0.0925926"
"15","50.4261503","12.5298354","893.0","829.0015258789062","167.86","15.57","5.93","150.72","-44.34","0.0","0.6006","1","0.76276","0.842361","0.0515625","0.0884259"
"15","50.4261503","12.5298354","893.0","829.0015258789062","167.86","15.57","5.93","150.72","-44.34","0.0","0.6006","1","0.576563","0.347917","0.0520833","0.0865741"
"16","50.4261503","12.5298354","893.0","829.0015258789062","167.86","15.57","5.93","150.72","-44.34","0.0","0.6006","1","0.869401","0.888889","0.0653646","0.109259"
"16","50.4261503","12.5298354","893.0","829.0015258789062","167.86","15.57","5.93","150.72","-44.34","0.0","0.6006","1","0.748958","0.778704","0.0541667","0.0888889"
"16","50.4261503","12.5298354","893.0","829.0015258789062","167.86","15.57","5.93","150.72","-44.34","0.0","0.6006","1","0.798568","0.690972","0.0632813","0.111574"
"16","50.4261503","12.5298354","893.0","829.0015258789062","167.86","15.57","5.93","150.72","-44.34","0.0","0.6006","1","0.5625","0.302315","0.05","0.087963"
"17","50.4261503","12.5298354","893.0","829.0015258789062","167.86","15.57","5.93","150.72","-44.34","0.0","0.6006","1","0.852083","0.818981","0.0619792","0.0953704"
"17","50.4261503","12.5298354","893.0","829.0015258789062","167.86","15.57","5.93","150.72","-44.34","0.0","0.6006","1","0.963281","0.712269","0.046875","0.0773148"
"17","50.4261503","12.5298354","893.0","829.0015258789062","167.86","15.57","5.93","150.72","-44.34","0.0","0.6006","1","0.736589","0.720139","0.0533854","0.0912037"
"17","50.4261503","12.5298354","893.0","829.0015258789062","167.86","15.57","5.93","150.72","-44.34","0.0","0.6006","1","0.783464","0.634028","0.0653646","0.113426"
"18","50.4261503","12.5298354","893.0","829.0015258789062","167.86","15.57","5.93","150.72","-44.34","0.0","0.6006","1","0.945964","0.64375","0.0419271","0.074537"
"18","50.4261503","12.5298354","893.0","829.0015258789062","167.86","15.57","5.93","150.72","-44.34","0.0","0.6006","1","0.720964","0.662269","0.0518229","0.0893519"
"18","50.4261503","12.5298354","893.0","829.0015258789062","167.86","15.57","5.93","150.72","-44.34","0.0","0.6006","1","0.838151","0.754398","0.0565104","0.099537"
"18","50.4261503","12.5298354","893.0","829.0015258789062","167.86","15.57","5.93","150.72","-44.34","0.0","0.6006","1","0.772266","0.576852","0.0601562","0.103704"
"18","50.4261503","12.5298354","893.0","829.0015258789062","167.86","15.57","5.93","150.72","-44.34","0.0","0.6006","1","0.567969","0.591204","0.0598958","0.110185"
"19","50.4261505","12.5298346","893.0","829.0015258789062","-178.06","8.36","-0.48","161.72","-57.44","0.0","0.8008000000000001","1","0.926823","0.578935","0.0421875","0.074537"
"19","50.4261505","12.5298346","893.0","829.0015258789062","-178.06","8.36","-0.48","161.72","-57.44","0.0","0.8008000000000001","1","0.823568","0.690509","0.0591146","0.0976852"
"19","50.4261505","12.5298346","893.0","829.0015258789062","-178.06","8.36","-0.48","161.72","-57.44","0.0","0.8008000000000001","1","0.754948","0.518287","0.0635417","0.106019"
"19","50.4261505","12.5298346","893.0","829.0015258789062","-178.06","8.36","-0.48","161.72","-57.44","0.0","0.8008000000000001","1","0.556901","0.540741","0.0580729","0.103704"
"19","50.4261505","12.5298346","893.0","829.0015258789062","-178.06","8.36","-0.48","161.72","-57.44","0.0","0.8008000000000001","1","0.707682","0.615046","0.0549479","0.0958333"
"20","50.4261505","12.5298346","893.0","829.0015258789062","-178.06","8.36","-0.48","161.72","-57.44","0.0","0.8008000000000001","1","0.808594","0.629398","0.0635417","0.103241"
"20","50.4261505","12.5298346","893.0","829.0015258789062","-178.06","8.36","-0.48","161.72","-57.44","0.0","0.8008000000000001","1","0.910677","0.516898","0.04375","0.0791667"
"20","50.4261505","12.5298346","893.0","829.0015258789062","-178.06","8.36","-0.48","161.72","-57.44","0.0","0.8008000000000001","1","0.544531","0.503009","0.05625","0.113426"
"20","50.4261505","12.5298346","893.0","829.0015258789062","-178.06","8.36","-0.48","161.72","-57.44","0.0","0.8008000000000001","1","0.697526","0.558565","0.0518229","0.0949074"
"20","50.4261505","12.5298346","893.0","829.0015258789062","-178.06","8.36","-0.48","161.72","-57.44","0.0","0.8008000000000001","1","0.741536","0.466435","0.0648438","0.115278"
"21","50.4261505","12.5298346","893.0","829.0015258789062","-178.06","8.36","-0.48","161.72","-57.44","0.0","0.8008000000000001","1","0.892839","0.455787","0.0471354","0.0810185"
"21","50.4261505","12.5298346","893.0","829.0015258789062","-178.06","8.36","-0.48","161.72","-57.44","0.0","0.8008000000000001","1","0.795833","0.576389","0.0583333","0.0944444"
"21","50.4261505","12.5298346","893.0","829.0015258789062","-178.06","8.36","-0.48","161.72","-57.44","0.0","0.8008000000000001","1","0.726042","0.412731","0.0671875","0.116204"
"21","50.4261505","12.5298346","893.0","829.0015258789062","-178.06","8.36","-0.48","161.72","-57.44","0.0","0.8008000000000001","1","0.680729","0.511574","0.0520833","0.0907407"
"21","50.4261505","12.5298346","893.0","829.0015258789062","-178.06","8.36","-0.48","161.72","-57.44","0.0","0.8008000000000001","1","0.530339","0.461343","0.0643229","0.121759"
"22","50.4261505","12.5298346","893.0","829.0015258789062","-178.06","8.36","-0.48","161.72","-57.44","0.0","0.8008000000000001","1","0.785677","0.522685","0.0588542","0.0907407"
"22","50.4261505","12.5298346","893.0","829.0015258789062","-178.06","8.36","-0.48","161.72","-57.44","0.0","0.8008000000000001","1","0.877865","0.398843","0.0494792","0.0865741"
"22","50.4261505","12.5298346","893.0","829.0015258789062","-178.06","8.36","-0.48","161.72","-57.44","0.0","0.8008000000000001","1","0.673437","0.461343","0.0536458","0.0884259"
"22","50.4261505","12.5298346","893.0","829.0015258789062","-178.06","8.36","-0.48","161.72","-57.44","0.0","0.8008000000000001","1","0.519271","0.419676","0.0640625","0.129167"
"23","50.4261505","12.5298346","893.0","829.0015258789062","-178.06","8.36","-0.48","161.72","-57.44","0.0","0.8008000000000001","1","0.771745","0.466898","0.0638021","0.106019"
"23","50.4261505","12.5298346","893.0","829.0015258789062","-178.06","8.36","-0.48","161.72","-57.44","0.0","0.8008000000000001","1","0.86276","0.33912","0.0494792","0.0856481"
"23","50.4261505","12.5298346","893.0","829.0015258789062","-178.06","8.36","-0.48","161.72","-57.44","0.0","0.8008000000000001","1","0.69974","0.31412","0.0666667","0.1125"
"23","50.4261505","12.5298346","893.0","829.0015258789062","-178.06","8.36","-0.48","161.72","-57.44","0.0","0.8008000000000001","1","0.658464","0.415278","0.0554687","0.0972222"
"24","50.4261505","12.5298346","893.0","829.0015258789062","-178.06","8.36","-0.48","161.72","-57.44","0.0","0.8008000000000001","1","0.756771","0.415741","0.0635417","0.101852"
"24","50.4261505","12.5298346","893.0","829.0015258789062","-178.06","8.36","-0.48","161.72","-57.44","0.0","0.8008000000000001","1","0.647266","0.371991","0.0559896","0.0930556"
"24","50.4261505","12.5298346","893.0","829.0015258789062","-178.06","8.36","-0.48","161.72","-57.44","0.0","0.8008000000000001","1","0.846484","0.285185","0.0497396","0.0796296"
"25","50.4261509","12.5298336","893.0","829.0015258789062","-162.95","5.32","-0.37","174.98","-69.06","0.0","0.9676333333333333","1","0.745443","0.369676","0.0638021","0.099537"
"26","50.4261509","12.5298336","893.0","829.0015258789062","-162.95","5.32","-0.37","174.98","-69.06","0.0","0.9676333333333333","1","0.734375","0.321759","0.0651042","0.108333"
"26","50.4261509","12.5298336","893.0","829.0015258789062","-162.95","5.32","-0.37","174.98","-69.06","0.0","0.9676333333333333","1","0.621094","0.286111","0.0578125","0.0972222"
"26","50.4261509","12.5298336","893.0","829.0015258789062","-162.95","5.32","-0.37","174.98","-69.06","0.0","0.9676333333333333","1","0.816927","0.177083","0.0505208","0.0856481"
"27","50.4261509","12.5298336","893.0","829.0015258789062","-162.95","5.32","-0.37","174.98","-69.06","0.0","0.9676333333333333","1","0.719922","0.277778","0.0658854","0.111111"
"28","50.4261509","12.5298336","893.0","829.0015258789062","-162.95","5.32","-0.37","174.98","-69.06","0.0","0.9676333333333333","1","0.710417","0.230324","0.059375","0.0976852"
"28","50.4261509","12.5298336","893.0","829.0015258789062","-162.95","5.32","-0.37","174.98","-69.06","0.0","0.9676333333333333","1","0.595443","0.210648","0.0565104","0.0953704"
"29","50.4261509","12.5298336","893.0","829.0015258789062","-162.95","5.32","-0.37","174.98","-69.06","0.0","0.9676333333333333","1","0.697526","0.188657","0.0643229","0.104167"
"30","50.4261513","12.5298327","893.0","829.0015258789062","-148.16","2.88","0.12","-170.83","-77.92","0.0","1.1011","1","0.684635","0.144676","0.0614583","0.103241"
"31","50.4261513","12.5298327","893.0","829.0015258789062","-148.16","2.88","0.12","-170.83","-77.92","0.0","1.1011","1","0.667969","0.108796","0.0635417","0.106481"
"32","50.4261513","12.5298327","893.0","829.0015258789062","-148.16","2.88","0.12","-170.83","-77.92","0.0","1.1011","1","0.65625","0.0680556","0.0598958","0.0990741"
"33","50.4261513","12.5298327","893.0","829.0015258789062","-148.16","2.88","0.12","-170.83","-77.92","0.0","1.1011","1","0.641797","0.0414352","0.0617188","0.0828704"
"42","50.4261524","12.5298299","893.0","829.0015258789062","-119.17","-5.83","13.11","-142.19","-87.15","0.0","1.6016000000000001","1","0.53125","0.953472","0.0572917","0.0930556"
"43","50.4261524","12.5298299","893.0","829.0015258789062","-119.17","-5.83","13.11","-142.19","-87.15","0.0","1.6016000000000001","1","0.539844","0.943287","0.0541667","0.0986111"
"44","50.4261524","12.5298299","893.0","829.0015258789062","-119.17","-5.83","13.11","-142.19","-87.15","0.0","1.6016000000000001","1","0.548047","0.934491","0.0528646","0.0930556"
"46","50.4261524","12.5298299","893.0","829.0015258789062","-119.17","-5.83","13.11","-142.19","-87.15","0.0","1.6016000000000001","1","0.566927","0.917593","0.0552083","0.0916667"
"47","50.4261524","12.5298299","893.0","829.0015258789062","-119.17","-5.83","13.11","-142.19","-87.15","0.0","1.6016000000000001","1","0.574219","0.907639","0.0578125","0.0939815"
"48","50.4261524","12.5298299","893.0","829.0015258789062","-119.17","-5.83","13.11","-142.19","-87.15","0.0","1.6016000000000001","1","0.58151","0.899769","0.0536458","0.0958333"
"49","50.4261535","12.5298267","893.0","829.0015258789062","-104.42","-14.1","19.4","-128.06","-88.16","0.0","1.6683333333333334","1","0.589323","0.891898","0.0546875","0.0986111"
"50","50.4261535","12.5298267","893.0","829.0015258789062","-104.42","-14.1","19.4","-128.06","-88.16","0.0","1.6683333333333334","1","0.598177","0.88287","0.0546875","0.0925926"
"56","50.4261554","12.5298222","893.0","829.0015258789062","-88.18","-18.08","18.65","-112.7","-88.78","0.0","1.9686333333333335","1","0.170052","0.107639","0.0703125","0.125463"
"57","50.4261554","12.5298222","893.0","829.0015258789062","-88.18","-18.08","18.65","-112.7","-88.78","0.0","1.9686333333333335","1","0.154297","0.130556","0.0653646","0.109259"
"58","50.4261554","12.5298222","893.0","829.0015258789062","-88.18","-18.08","18.65","-112.7","-88.78","0.0","1.9686333333333335","1","0.145703","0.163889","0.0726563","0.119444"
"59","50.4261554","12.5298222","893.0","829.0015258789062","-88.18","-18.08","18.65","-112.7","-88.78","0.0","1.9686333333333335","1","0.134896","0.190278","0.071875","0.113889"
"60","50.4261584","12.5298162","893.0","829.0015258789062","-72.17","-20.87","15.88","-95.19","-89.18","0.0","2.168833333333333","1","0.125521","0.22037","0.0734375","0.116667"
"61","50.4261584","12.5298162","893.0","829.0015258789062","-72.17","-20.87","15.88","-95.19","-89.18","0.0","2.168833333333333","1","0.155339","0.0395833","0.0658854","0.0791667"
"61","50.4261584","12.5298162","893.0","829.0015258789062","-72.17","-20.87","15.88","-95.19","-89.18","0.0","2.168833333333333","1","0.118099","0.250463","0.0742188","0.117593"
"62","50.4261584","12.5298162","893.0","829.0015258789062","-72.17","-20.87","15.88","-95.19","-89.18","0.0","2.168833333333333","1","0.146224","0.0520833","0.0736979","0.104167"
"62","50.4261584","12.5298162","893.0","829.0015258789062","-72.17","-20.87","15.88","-95.19","-89.18","0.0","2.168833333333333","1","0.111979","0.282639","0.0755208","0.120833"
"63","50.4261584","12.5298162","893.0","829.0015258789062","-72.17","-20.87","15.88","-95.19","-89.18","0.0","2.168833333333333","1","0.132552","0.0861111","0.0770833","0.118519"
"63","50.4261584","12.5298162","893.0","829.0015258789062","-72.17","-20.87","15.88","-95.19","-89.18","0.0","2.168833333333333","1","0.102734","0.305324","0.0700521","0.115278"
"64","50.4261584","12.5298162","893.0","829.0015258789062","-72.17","-20.87","15.88","-95.19","-89.18","0.0","2.168833333333333","1","0.119661","0.108102","0.0731771","0.121759"
"64","50.4261584","12.5298162","893.0","829.0015258789062","-72.17","-20.87","15.88","-95.19","-89.18","0.0","2.168833333333333","1","0.0973958","0.33287","0.0713542","0.119444"
"65","50.4261584","12.5298162","893.0","829.0015258789062","-72.17","-20.87","15.88","-95.19","-89.18","0.0","2.168833333333333","1","0.111979","0.134491","0.0786458","0.122685"
"65","50.4261584","12.5298162","893.0","829.0015258789062","-72.17","-20.87","15.88","-95.19","-89.18","0.0","2.168833333333333","1","0.091276","0.364583","0.0658854","0.116204"
"66","50.4261626","12.5298089","893.0","829.0015258789062","-60.74","-23.75","11.95","-79.54","-89.45","0.0","2.3690333333333333","1","0.100651","0.160185","0.0757812","0.118519"
"66","50.4261626","12.5298089","893.0","829.0015258789062","-60.74","-23.75","11.95","-79.54","-89.45","0.0","2.3690333333333333","1","0.0877604","0.390278","0.0677083","0.117593"
"67","50.4261626","12.5298089","893.0","829.0015258789062","-60.74","-23.75","11.95","-79.54","-89.45","0.0","2.3690333333333333","1","0.0951823","0.184954","0.0736979","0.123611"
"67","50.4261626","12.5298089","893.0","829.0015258789062","-60.74","-23.75","11.95","-79.54","-89.45","0.0","2.3690333333333333","1","0.0841146","0.417593","0.0703125","0.112963"
"67","50.4261626","12.5298089","893.0","829.0015258789062","-60.74","-23.75","11.95","-79.54","-89.45","0.0","2.3690333333333333","1","0.686849","0.681481","0.0580729","0.0981481"
"68","50.4261626","12.5298089","893.0","829.0015258789062","-60.74","-23.75","11.95","-79.54","-89.45","0.0","2.3690333333333333","1","0.0885417","0.206019","0.078125","0.134259"
"68","50.4261626","12.5298089","893.0","829.0015258789062","-60.74","-23.75","11.95","-79.54","-89.45","0.0","2.3690333333333333","1","0.0839844","0.437963","0.0809896","0.125926"
"69","50.4261626","12.5298089","893.0","829.0015258789062","-60.74","-23.75","11.95","-79.54","-89.45","0.0","2.3690333333333333","1","0.0826823","0.233102","0.0710938","0.120833"
"69","50.4261626","12.5298089","893.0","829.0015258789062","-60.74","-23.75","11.95","-79.54","-89.45","0.0","2.3690333333333333","1","0.0794271","0.462963","0.0692708","0.109259"
"69","50.4261626","12.5298089","893.0","829.0015258789062","-60.74","-23.75","11.95","-79.54","-89.45","0.0","2.3690333333333333","1","0.690234","0.662731","0.0596354","0.0958333"
"70","50.4261626","12.5298089","893.0","829.0015258789062","-60.74","-23.75","11.95","-79.54","-89.45","0.0","2.3690333333333333","1","0.0786458","0.252315","0.0697917","0.114815"
"70","50.4261626","12.5298089","893.0","829.0015258789062","-60.74","-23.75","11.95","-79.54","-89.45","0.0","2.3690333333333333","1","0.0782552","0.480324","0.0710938","0.109722"
"70","50.4261626","12.5298089","893.0","829.0015258789062","-60.74","-23.75","11.95","-79.54","-89.45","0.0","2.3690333333333333","1","0.690234","0.653241","0.0585938","0.0962963"
"71","50.4261626","12.5298089","893.0","829.0015258789062","-60.74","-23.75","11.95","-79.54","-89.45","0.0","2.3690333333333333","1","0.0733073","0.274306","0.0768229","0.125463"
"71","50.4261626","12.5298089","893.0","829.0015258789062","-60.74","-23.75","11.95","-79.54","-89.45","0.0","2.3690333333333333","1","0.077474","0.503935","0.0747396","0.118056"
"71","50.4261626","12.5298089","893.0","829.0015258789062","-60.74","-23.75","11.95","-79.54","-89.45","0.0","2.3690333333333333","1","0.691406","0.647917","0.05625","0.0930556"
"72","50.4261677","12.5298002","893.0","829.0015258789062","-54.28","-26.7","6.12","-69.04","-89.63","0.0","2.6026000000000002","1","0.0753906","0.522222","0.0690104","0.106481"
"72","50.4261677","12.5298002","893.0","829.0015258789062","-54.28","-26.7","6.12","-69.04","-89.63","0.0","2.6026000000000002","1","0.0675781","0.29213","0.0695312","0.110185"
"72","50.4261677","12.5298002","893.0","829.0015258789062","-54.28","-26.7","6.12","-69.04","-89.63","0.0","2.6026000000000002","1","0.692578","0.646759","0.0539063","0.0888889"
"73","50.4261677","12.5298002","893.0","829.0015258789062","-54.28","-26.7","6.12","-69.04","-89.63","0.0","2.6026000000000002","1","0.0651042","0.31088","0.0723958","0.119907"
"73","50.4261677","12.5298002","893.0","829.0015258789062","-54.28","-26.7","6.12","-69.04","-89.63","0.0","2.6026000000000002","1","0.0776042","0.53912","0.0760417","0.118056"
"73","50.4261677","12.5298002","893.0","829.0015258789062","-54.28","-26.7","6.12","-69.04","-89.63","0.0","2.6026000000000002","1","0.694141","0.642824","0.0544271","0.0893519"
"74","50.4261677","12.5298002","893.0","829.0015258789062","-54.28","-26.7","6.12","-69.04","-89.63","0.0","2.6026000000000002","1","0.060026","0.33125","0.0705729","0.10787"
"74","50.4261677","12.5298002","893.0","829.0015258789062","-54.28","-26.7","6.12","-69.04","-89.63","0.0","2.6026000000000002","1","0.0772135","0.55625","0.0726563","0.111574"
"74","50.4261677","12.5298002","893.0","829.0015258789062","-54.28","-26.7","6.12","-69.04","-89.63","0.0","2.6026000000000002","1","0.694661","0.638426","0.0523437","0.087037"
"75","50.4261677","12.5298002","893.0","829.0015258789062","-54.28","-26.7","6.12","-69.04","-89.63","0.0","2.6026000000000002","1","0.0583333","0.347685","0.0682292","0.112037"
"75","50.4261677","12.5298002","893.0","829.0015258789062","-54.28","-26.7","6.12","-69.04","-89.63","0.0","2.6026000000000002","1","0.0746094","0.575926","0.0778646","0.119444"
"75","50.4261677","12.5298002","893.0","829.0015258789062","-54.28","-26.7","6.12","-69.04","-89.63","0.0","2.6026000000000002","1","0.694661","0.635417","0.0507812","0.0847222"
"76","50.4261677","12.5298002","893.0","829.0015258789062","-54.28","-26.7","6.12","-69.04","-89.63","0.0","2.6026000000000002","1","0.0548177","0.362037","0.0752604","0.127778"
"76","50.4261677","12.5298002","893.0","829.0015258789062","-54.28","-26.7","6.12","-69.04","-89.63","0.0","2.6026000000000002","1","0.0764323","0.588426","0.0726563","0.112963"
"76","50.4261677","12.5298002","893.0","829.0015258789062","-54.28","-26.7","6.12","-69.04","-89.63","0.0","2.6026000000000002","1","0.696484","0.631944","0.0518229","0.0861111"
"77","50.4261677","12.5298002","893.0","829.0015258789062","-54.28","-26.7","6.12","-69.04","-89.63","0.0","2.6026000000000002","1","0.0511719","0.377083","0.0705729","0.119907"
"77","50.4261677","12.5298002","893.0","829.0015258789062","-54.28","-26.7","6.12","-69.04","-89.63","0.0","2.6026000000000002","1","0.0746094","0.603009","0.0742188","0.116204"
"78","50.4261677","12.5298002","893.0","829.0015258789062","-54.28","-26.7","6.12","-69.04","-89.63","0.0","2.6026000000000002","1","0.0505208","0.393981","0.0671875","0.110185"
"78","50.4261677","12.5298002","893.0","829.0015258789062","-54.28","-26.7","6.12","-69.04","-89.63","0.0","2.6026000000000002","1","0.0764323","0.614583","0.0716146","0.10787"
"78","50.4261677","12.5298002","893.0","829.0015258789062","-54.28","-26.7","6.12","-69.04","-89.63","0.0","2.6026000000000002","1","0.695964","0.621991","0.0528646","0.0847222"
"79","50.4261736","12.5297904","893.0","829.0015258789062","-50.85","-28.22","2.21","-62.71","-89.74","-0.01","2.8028","1","0.0485677","0.40162","0.0716146","0.11713"
"79","50.4261736","12.5297904","893.0","829.0015258789062","-50.85","-28.22","2.21","-62.71","-89.74","-0.01","2.8028","1","0.075651","0.62963","0.0716146","0.113889"
"79","50.4261736","12.5297904","893.0","829.0015258789062","-50.85","-28.22","2.21","-62.71","-89.74","-0.01","2.8028","1","0.695833","0.619907","0.053125","0.0851852"
"80","50.4261736","12.5297904","893.0","829.0015258789062","-50.85","-28.22","2.21","-62.71","-89.74","-0.01","2.8028","1","0.0454427","0.422222","0.0627604","0.102778"
"80","50.4261736","12.5297904","893.0","829.0015258789062","-50.85","-28.22","2.21","-62.71","-89.74","-0.01","2.8028","1","0.074349","0.643981","0.0679687","0.106481"
"80","50.4261736","12.5297904","893.0","829.0015258789062","-50.85","-28.22","2.21","-62.71","-89.74","-0.01","2.8028","1","0.695312","0.620602","0.053125","0.0856481"
"81","50.4261736","12.5297904","893.0","829.0015258789062","-50.85","-28.22","2.21","-62.71","-89.74","-0.01","2.8028","1","0.0457031","0.434491","0.0695312","0.119907"
"81","50.4261736","12.5297904","893.0","829.0015258789062","-50.85","-28.22","2.21","-62.71","-89.74","-0.01","2.8028","1","0.0765625","0.652778","0.071875","0.113889"
"81","50.4261736","12.5297904","893.0","829.0015258789062","-50.85","-28.22","2.21","-62.71","-89.74","-0.01","2.8028","1","0.695312","0.620602","0.0515625","0.0828704"
"82","50.4261736","12.5297904","893.0","829.0015258789062","-50.85","-28.22","2.21","-62.71","-89.74","-0.01","2.8028","1","0.046875","0.441667","0.0697917","0.12037"
"82","50.4261736","12.5297904","893.0","829.0015258789062","-50.85","-28.22","2.21","-62.71","-89.74","-0.01","2.8028","1","0.0766927","0.663889","0.0747396","0.12037"
"82","50.4261736","12.5297904","893.0","829.0015258789062","-50.85","-28.22","2.21","-62.71","-89.74","-0.01","2.8028","1","0.695312","0.621065","0.0526042","0.0837963"
"83","50.4261736","12.5297904","893.0","829.0015258789062","-50.85","-28.22","2.21","-62.71","-89.74","-0.01","2.8028","1","0.0451823","0.458333","0.0648438","0.108333"
"83","50.4261736","12.5297904","893.0","829.0015258789062","-50.85","-28.22","2.21","-62.71","-89.74","-0.01","2.8028","1","0.0763021","0.672222","0.065625","0.107407"
"83","50.4261736","12.5297904","893.0","829.0015258789062","-50.85","-28.22","2.21","-62.71","-89.74","-0.01","2.8028","1","0.694141","0.622685","0.0533854","0.0842593"
"84","50.4261736","12.5297904","893.0","829.0015258789062","-50.85","-28.22","2.21","-62.71","-89.74","-0.01","2.8028","1","0.0440104","0.466435","0.065625","0.10787"
"84","50.4261736","12.5297904","893.0","829.0015258789062","-50.85","-28.22","2.21","-62.71","-89.74","-0.01","2.8028","1","0.0777344","0.683102","0.0710938","0.110648"
"85","50.4261806","12.5297782","893.0","829.0015258789062","-49.47","-29.3","0.94","-59.22","-89.81","-0.01","2.9696333333333333","1","0.0424479","0.476852","0.0651042","0.109259"
"85","50.4261806","12.5297782","893.0","829.0015258789062","-49.47","-29.3","0.94","-59.22","-89.81","-0.01","2.9696333333333333","1","0.0742188","0.699537","0.0703125","0.113889"
"86","50.4261806","12.5297782","893.0","829.0015258789062","-49.47","-29.3","0.94","-59.22","-89.81","-0.01","2.9696333333333333","1","0.041276","0.48912","0.0638021","0.10787"
"86","50.4261806","12.5297782","893.0","829.0015258789062","-49.47","-29.3","0.94","-59.22","-89.81","-0.01","2.9696333333333333","1","0.0748698","0.707407","0.0648438","0.101852"
"86","50.4261806","12.5297782","893.0","829.0015258789062","-49.47","-29.3","0.94","-59.22","-89.81","-0.01","2.9696333333333333","1","0.697526","0.627083","0.0549479","0.0921296"
"87","50.4261806","12.5297782","893.0","829.0015258789062","-49.47","-29.3","0.94","-59.22","-89.81","-0.01","2.9696333333333333","1","0.0414063","0.503935","0.0697917","0.106944"
"87","50.4261806","12.5297782","893.0","829.0015258789062","-49.47","-29.3","0.94","-59.22","-89.81","-0.01","2.9696333333333333","1","0.0770833","0.716667","0.0708333","0.110185"
"88","50.4261806","12.5297782","893.0","829.0015258789062","-49.47","-29.3","0.94","-59.22","-89.81","-0.01","2.9696333333333333","1","0.0419271","0.510417","0.0640625","0.109722"
"88","50.4261806","12.5297782","893.0","829.0015258789062","-49.47","-29.3","0.94","-59.22","-89.81","-0.01","2.9696333333333333","1","0.0761719","0.725231","0.0669271","0.106019"
"88","50.4261806","12.5297782","893.0","829.0015258789062","-49.47","-29.3","0.94","-59.22","-89.81","-0.01","2.9696333333333333","1","0.695312","0.631019","0.0536458","0.0916667"
"89","50.4261806","12.5297782","893.0","829.0015258789062","-49.47","-29.3","0.94","-59.22","-89.81","-0.01","2.9696333333333333","1","0.0411458","0.52338","0.0619792","0.102315"
"89","50.4261806","12.5297782","893.0","829.0015258789062","-49.47","-29.3","0.94","-59.22","-89.81","-0.01","2.9696333333333333","1","0.0772135","0.735417","0.0690104","0.105093"
"89","50.4261806","12.5297782","893.0","829.0015258789062","-49.47","-29.3","0.94","-59.22","-89.81","-0.01","2.9696333333333333","1","0.697005","0.633565","0.0507812","0.0847222"
"90","50.4261883","12.5297642","893.0","829.0015258789062","-48.69","-29.82","0.83","-56.95","-89.86","0.0","3.1698333333333335","1","0.039974","0.53125","0.0632813","0.10787"
"90","50.4261883","12.5297642","893.0","829.0015258789062","-48.69","-29.82","0.83","-56.95","-89.86","0.0","3.1698333333333335","1","0.0790365","0.745139","0.0695312","0.10787"
"90","50.4261883","12.5297642","893.0","829.0015258789062","-48.69","-29.82","0.83","-56.95","-89.86","0.0","3.1698333333333335","1","0.696354","0.638889","0.0473958","0.0805556"
"91","50.4261883","12.5297642","893.0","829.0015258789062","-48.69","-29.82","0.83","-56.95","-89.86","0.0","3.1698333333333335","1","0.0375","0.541204","0.0619792","0.10463"
"91","50.4261883","12.5297642","893.0","829.0015258789062","-48.69","-29.82","0.83","-56.95","-89.86","0.0","3.1698333333333335","1","0.0761719","0.755093","0.0653646","0.112963"
"91","50.4261883","12.5297642","893.0","829.0015258789062","-48.69","-29.82","0.83","-56.95","-89.86","0.0","3.1698333333333335","1","0.695312","0.640972","0.0484375","0.0810185"
"92","50.4261883","12.5297642","893.0","829.0015258789062","-48.69","-29.82","0.83","-56.95","-89.86","0.0","3.1698333333333335","1","0.0389323","0.557176","0.0617188","0.101389"
"92","50.4261883","12.5297642","893.0","829.0015258789062","-48.69","-29.82","0.83","-56.95","-89.86","0.0","3.1698333333333335","1","0.0764323","0.764815","0.0710938","0.115741"
"92","50.4261883","12.5297642","893.0","829.0015258789062","-48.69","-29.82","0.83","-56.95","-89.86","0.0","3.1698333333333335","1","0.695312","0.644444","0.0505208","0.0842593"
"93","50.4261883","12.5297642","893.0","829.0015258789062","-48.69","-29.82","0.83","-56.95","-89.86","0.0","3.1698333333333335","1","0.0386719","0.565046","0.0648438","0.100463"
"93","50.4261883","12.5297642","893.0","829.0015258789062","-48.69","-29.82","0.83","-56.95","-89.86","0.0","3.1698333333333335","1","0.0770833","0.772917","0.0677083","0.106944"
"93","50.4261883","12.5297642","893.0","829.0015258789062","-48.69","-29.82","0.83","-56.95","-89.86","0.0","3.1698333333333335","1","0.694792","0.646759","0.0453125","0.0768519"
"94","50.4261883","12.5297642","893.0","829.0015258789062","-48.69","-29.82","0.83","-56.95","-89.86","0.0","3.1698333333333335","1","0.0365885","0.575463","0.0627604","0.103704"
"94","50.4261883","12.5297642","893.0","829.0015258789062","-48.69","-29.82","0.83","-56.95","-89.86","0.0","3.1698333333333335","1","0.077474","0.78125","0.0690104","0.108796"
"94","50.4261883","12.5297642","893.0","829.0015258789062","-48.69","-29.82","0.83","-56.95","-89.86","0.0","3.1698333333333335","1","0.694792","0.649306","0.0479167","0.0791667"
"95","50.4261883","12.5297642","893.0","829.0015258789062","-48.69","-29.82","0.83","-56.95","-89.86","0.0","3.1698333333333335","1","0.0365885","0.583333","0.0622396","0.1"
"95","50.4261883","12.5297642","893.0","829.0015258789062","-48.69","-29.82","0.83","-56.95","-89.86","0.0","3.1698333333333335","1","0.0746094","0.793981","0.0622396","0.10463"
"95","50.4261883","12.5297642","893.0","829.0015258789062","-48.69","-29.82","0.83","-56.95","-89.86","0.0","3.1698333333333335","1","0.695833","0.652778","0.0515625","0.0833333"
"96","50.4261975","12.5297474","893.0","829.0015258789062","-48.76","-30.32","1.95","-55.17","-89.89","0.0","3.370033333333333","1","0.0363281","0.593287","0.0554687","0.0958333"
"96","50.4261975","12.5297474","893.0","829.0015258789062","-48.76","-30.32","1.95","-55.17","-89.89","0.0","3.370033333333333","1","0.078776","0.8","0.0632813","0.0990741"
"96","50.4261975","12.5297474","893.0","829.0015258789062","-48.76","-30.32","1.95","-55.17","-89.89","0.0","3.370033333333333","1","0.696484","0.654861","0.0528646","0.0847222"
"97","50.4261975","12.5297474","893.0","829.0015258789062","-48.76","-30.32","1.95","-55.17","-89.89","0.0","3.370033333333333","1","0.036849","0.598843","0.0617188","0.106944"
"97","50.4261975","12.5297474","893.0","829.0015258789062","-48.76","-30.32","1.95","-55.17","-89.89","0.0","3.370033333333333","1","0.0809896","0.808102","0.0692708","0.109722"
"97","50.4261975","12.5297474","893.0","829.0015258789062","-48.76","-30.32","1.95","-55.17","-89.89","0.0","3.370033333333333","1","0.696354","0.662731","0.0515625","0.0884259"
"98","50.4261975","12.5297474","893.0","829.0015258789062","-48.76","-30.32","1.95","-55.17","-89.89","0.0","3.370033333333333","1","0.0367187","0.610185","0.0630208","0.107407"
"98","50.4261975","12.5297474","893.0","829.0015258789062","-48.76","-30.32","1.95","-55.17","-89.89","0.0","3.370033333333333","1","0.695833","0.665972","0.0510417","0.0865741"
"98","50.4261975","12.5297474","893.0","829.0015258789062","-48.76","-30.32","1.95","-55.17","-89.89","0.0","3.370033333333333","1","0.0783854","0.816898","0.0671875","0.111574"
"99","50.4261975","12.5297474","893.0","829.0015258789062","-48.76","-30.32","1.95","-55.17","-89.89","0.0","3.370033333333333","1","0.695833","0.671759","0.0515625","0.0851852"
"99","50.4261975","12.5297474","893.0","829.0015258789062","-48.76","-30.32","1.95","-55.17","-89.89","0.0","3.370033333333333","1","0.036849","0.615046","0.0632813","0.1125"
"99","50.4261975","12.5297474","893.0","829.0015258789062","-48.76","-30.32","1.95","-55.17","-89.89","0.0","3.370033333333333","1","0.0757812","0.827778","0.0734375","0.118519"
"100","50.4261975","12.5297474","893.0","829.0015258789062","-48.76","-30.32","1.95","-55.17","-89.89","0.0","3.370033333333333","1","0.695312","0.675463","0.0505208","0.0824074"
"100","50.4261975","12.5297474","893.0","829.0015258789062","-48.76","-30.32","1.95","-55.17","-89.89","0.0","3.370033333333333","1","0.0359375","0.633333","0.06875","0.112963"
"100","50.4261975","12.5297474","893.0","829.0015258789062","-48.76","-30.32","1.95","-55.17","-89.89","0.0","3.370033333333333","1","0.0761719","0.834259","0.0664062","0.103704"
"101","50.4261975","12.5297474","893.0","829.0015258789062","-48.76","-30.32","1.95","-55.17","-89.89","0.0","3.370033333333333","1","0.0347656","0.643056","0.0632813","0.100926"
"101","50.4261975","12.5297474","893.0","829.0015258789062","-48.76","-30.32","1.95","-55.17","-89.89","0.0","3.370033333333333","1","0.694141","0.677546","0.0486979","0.0810185"
"101","50.4261975","12.5297474","893.0","829.0015258789062","-48.76","-30.32","1.95","-55.17","-89.89","0.0","3.370033333333333","1","0.075651","0.844907","0.0679687","0.107407"
"102","50.4262071","12.52973","893.0","829.0015258789062","-49.43","-31.11","2.07","-54.35","-89.92","0.0","3.6036","1","0.0335938","0.64838","0.0619792","0.099537"
"102","50.4262071","12.52973","893.0","829.0015258789062","-49.43","-31.11","2.07","-54.35","-89.92","0.0","3.6036","1","0.696354","0.681481","0.0546875","0.087963"
"102","50.4262071","12.52973","893.0","829.0015258789062","-49.43","-31.11","2.07","-54.35","-89.92","0.0","3.6036","1","0.0770833","0.850694","0.0682292","0.106944"
"103","50.4262071","12.52973","893.0","829.0015258789062","-49.43","-31.11","2.07","-54.35","-89.92","0.0","3.6036","1","0.0339844","0.658102","0.0611979","0.102315"
"103","50.4262071","12.52973","893.0","829.0015258789062","-49.43","-31.11","2.07","-54.35","-89.92","0.0","3.6036","1","0.078125","0.858102","0.075","0.118981"
"103","50.4262071","12.52973","893.0","829.0015258789062","-49.43","-31.11","2.07","-54.35","-89.92","0.0","3.6036","1","0.695312","0.687963","0.0520833","0.0814815"
"104","50.4262071","12.52973","893.0","829.0015258789062","-49.43","-31.11","2.07","-54.35","-89.92","0.0","3.6036","1","0.0348958","0.664352","0.0619792","0.108333"
"104","50.4262071","12.52973","893.0","829.0015258789062","-49.43","-31.11","2.07","-54.35","-89.92","0.0","3.6036","1","0.695964","0.695833","0.0507812","0.0888889"
"104","50.4262071","12.52973","893.0","829.0015258789062","-49.43","-31.11","2.07","-54.35","-89.92","0.0","3.6036","1","0.0786458","0.868056","0.0744792","0.121296"
"105","50.4262071","12.52973","893.0","829.0015258789062","-49.43","-31.11","2.07","-54.35","-89.92","0.0","3.6036","1","0.0342448","0.669676","0.0596354","0.105093"
"105","50.4262071","12.52973","893.0","829.0015258789062","-49.43","-31.11","2.07","-54.35","-89.92","0.0","3.6036","1","0.695312","0.702083","0.0541667","0.0875"
"105","50.4262071","12.52973","893.0","829.0015258789062","-49.43","-31.11","2.07","-54.35","-89.92","0.0","3.6036","1","0.08125","0.871991","0.0770833","0.127315"
"106","50.4262071","12.52973","893.0","829.0015258789062","-49.43","-31.11","2.07","-54.35","-89.92","0.0","3.6036","1","0.034375","0.678935","0.0619792","0.110648"
"106","50.4262071","12.52973","893.0","829.0015258789062","-49.43","-31.11","2.07","-54.35","-89.92","0.0","3.6036","1","0.694141","0.708796","0.0507812","0.0824074"
"107","50.4262071","12.52973","893.0","829.0015258789062","-49.43","-31.11","2.07","-54.35","-89.92","0.0","3.6036","1","0.0326823","0.692361","0.0606771","0.102315"
"107","50.4262071","12.52973","893.0","829.0015258789062","-49.43","-31.11","2.07","-54.35","-89.92","0.0","3.6036","1","0.0752604","0.894907","0.0682292","0.111111"
"107","50.4262071","12.52973","893.0","829.0015258789062","-49.43","-31.11","2.07","-54.35","-89.92","0.0","3.6036","1","0.694792","0.711806","0.0489583","0.0810185"
"108","50.4262071","12.52973","893.0","829.0015258789062","-49.43","-31.11","2.07","-54.35","-89.92","0.0","3.6036","1","0.0335938","0.700926","0.059375","0.0990741"
"108","50.4262071","12.52973","893.0","829.0015258789062","-49.43","-31.11","2.07","-54.35","-89.92","0.0","3.6036","1","0.075651","0.9","0.0679687","0.109259"
"109","50.4262163","12.5297133","893.0","829.0015258789062","-50.07","-31.8","2.46","-53.93","-89.94","0.0","3.8038","1","0.0358073","0.708796","0.0596354","0.102778"
"109","50.4262163","12.5297133","893.0","829.0015258789062","-50.07","-31.8","2.46","-53.93","-89.94","0.0","3.8038","1","0.0753906","0.907639","0.0684896","0.109722"
"109","50.4262163","12.5297133","893.0","829.0015258789062","-50.07","-31.8","2.46","-53.93","-89.94","0.0","3.8038","1","0.695312","0.728704","0.0515625","0.0851852"
"109","50.4262163","12.5297133","893.0","829.0015258789062","-50.07","-31.8","2.46","-53.93","-89.94","0.0","3.8038","1","0.0391927","0.618981","0.0549479","0.087963"
"110","50.4262163","12.5297133","893.0","829.0015258789062","-50.07","-31.8","2.46","-53.93","-89.94","0.0","3.8038","1","0.0325521","0.716204","0.0630208","0.105556"
"111","50.4262163","12.5297133","893.0","829.0015258789062","-50.07","-31.8","2.46","-53.93","-89.94","0.0","3.8038","1","0.0333333","0.725231","0.0609375","0.106944"
"111","50.4262163","12.5297133","893.0","829.0015258789062","-50.07","-31.8","2.46","-53.93","-89.94","0.0","3.8038","1","0.693099","0.740972","0.0518229","0.0837963"
"112","50.4262163","12.5297133","893.0","829.0015258789062","-50.07","-31.8","2.46","-53.93","-89.94","0.0","3.8038","1","0.0345052","0.731713","0.0596354","0.105093"
"112","50.4262163","12.5297133","893.0","829.0015258789062","-50.07","-31.8","2.46","-53.93","-89.94","0.0","3.8038","1","0.693099","0.743519","0.0497396","0.0842593"
"112","50.4262163","12.5297133","893.0","829.0015258789062","-50.07","-31.8","2.46","-53.93","-89.94","0.0","3.8038","1","0.0770833","0.933565","0.065625","0.100463"
"112","50.4262163","12.5297133","893.0","829.0015258789062","-50.07","-31.8","2.46","-53.93","-89.94","0.0","3.8038","1","0.0365885","0.645833","0.0554687","0.0953704"
"113","50.4262163","12.5297133","893.0","829.0015258789062","-50.07","-31.8","2.46","-53.93","-89.94","0.0","3.8038","1","0.031901","0.740046","0.0611979","0.106944"
"113","50.4262163","12.5297133","893.0","829.0015258789062","-50.07","-31.8","2.46","-53.93","-89.94","0.0","3.8038","1","0.692057","0.75","0.0528646","0.0888889"
"114","50.4262163","12.5297133","893.0","829.0015258789062","-50.07","-31.8","2.46","-53.93","-89.94","0.0","3.8038","1","0.0317708","0.750926","0.059375","0.100926"
"114","50.4262163","12.5297133","893.0","829.0015258789062","-50.07","-31.8","2.46","-53.93","-89.94","0.0","3.8038","1","0.694792","0.76088","0.0536458","0.0865741"
"115","50.4262284","12.5296909","893.0","829.0015258789062","-50.07","-31.8","2.46","-53.23","-89.94","0.0","3.9706333333333332","1","0.0304688","0.759954","0.0609375","0.101389"
"115","50.4262284","12.5296909","893.0","829.0015258789062","-50.07","-31.8","2.46","-53.23","-89.94","0.0","3.9706333333333332","1","0.0356771","0.667361","0.0552083","0.0875"
"115","50.4262284","12.5296909","893.0","829.0015258789062","-50.07","-31.8","2.46","-53.23","-89.94","0.0","3.9706333333333332","1","0.692969","0.769676","0.0526042","0.0837963"
"115","50.4262284","12.5296909","893.0","829.0015258789062","-50.07","-31.8","2.46","-53.23","-89.94","0.0","3.9706333333333332","1","0.732161","0.0877315","0.0664062","0.111574"
"116","50.4262284","12.5296909","893.0","829.0015258789062","-50.07","-31.8","2.46","-53.23","-89.94","0.0","3.9706333333333332","1","0.0315104","0.769676","0.0630208","0.109722"
"116","50.4262284","12.5296909","893.0","829.0015258789062","-50.07","-31.8","2.46","-53.23","-89.94","0.0","3.9706333333333332","1","0.692448","0.775926","0.0520833","0.0851852"
"117","50.4262284","12.5296909","893.0","829.0015258789062","-50.07","-31.8","2.46","-53.23","-89.94","0.0","3.9706333333333332","1","0.0334635","0.775926","0.0575521","0.0972222"
"117","50.4262284","12.5296909","893.0","829.0015258789062","-50.07","-31.8","2.46","-53.23","-89.94","0.0","3.9706333333333332","1","0.691406","0.781713","0.053125","0.0884259"
"118","50.4262284","12.5296909","893.0","829.0015258789062","-50.07","-31.8","2.46","-53.23","-89.94","0.0","3.9706333333333332","1","0.0330729","0.785185","0.059375","0.10463"
"118","50.4262284","12.5296909","893.0","829.0015258789062","-50.07","-31.8","2.46","-53.23","-89.94","0.0","3.9706333333333332","1","0.691927","0.79213","0.0526042","0.0851852"
"119","50.4262284","12.5296909","893.0","829.0015258789062","-50.07","-31.8","2.46","-53.23","-89.94","0.0","3.9706333333333332","1","0.0289063","0.796065","0.0578125","0.10787"
"119","50.4262284","12.5296909","893.0","829.0015258789062","-50.07","-31.8","2.46","-53.23","-89.94","0.0","3.9706333333333332","1","0.693099","0.799537","0.0513021","0.0824074"
"119","50.4262284","12.5296909","893.0","829.0015258789062","-50.07","-31.8","2.46","-53.23","-89.94","0.0","3.9706333333333332","1","0.730469","0.111111","0.0630208","0.100926"
"120","50.4262399","12.5296695","893.0","829.0015258789062","-50.07","-31.8","2.46","-52.97","-89.95","0.01","4.170833333333333","1","0.0322917","0.803935","0.0614583","0.106944"
"120","50.4262399","12.5296695","893.0","829.0015258789062","-50.07","-31.8","2.46","-52.97","-89.95","0.01","4.170833333333333","1","0.728776","0.122454","0.0679687","0.10787"
"121","50.4262399","12.5296695","893.0","829.0015258789062","-50.07","-31.8","2.46","-52.97","-89.95","0.01","4.170833333333333","1","0.0324219","0.815278","0.0570313","0.112963"
"122","50.4262399","12.5296695","893.0","829.0015258789062","-50.07","-31.8","2.46","-52.97","-89.95","0.01","4.170833333333333","1","0.0272135","0.828472","0.0544271","0.0921296"
"122","50.4262399","12.5296695","893.0","829.0015258789062","-50.07","-31.8","2.46","-52.97","-89.95","0.01","4.170833333333333","1","0.0348958","0.725694","0.0552083","0.0893519"
"123","50.4262399","12.5296695","893.0","829.0015258789062","-50.07","-31.8","2.46","-52.97","-89.95","0.01","4.170833333333333","1","0.0311198","0.83588","0.0575521","0.099537"
"124","50.4262399","12.5296695","893.0","829.0015258789062","-50.07","-31.8","2.46","-52.97","-89.95","0.01","4.170833333333333","1","0.0324219","0.84213","0.0580729","0.105556"
"125","50.4262399","12.5296695","893.0","829.0015258789062","-50.07","-31.8","2.46","-52.97","-89.95","0.01","4.170833333333333","1","0.0291667","0.856713","0.0583333","0.105093"
"126","50.4262514","12.5296481","893.0","829.0015258789062","-51.42","-12.17","4.55","-54.4","-89.96","0.0","4.371033333333333","1","0.0290365","0.866204","0.0580729","0.10463"
"127","50.4262514","12.5296481","893.0","829.0015258789062","-51.42","-12.17","4.55","-54.4","-89.96","0.0","4.371033333333333","1","0.028125","0.875463","0.05625","0.100926"
"127","50.4262514","12.5296481","893.0","829.0015258789062","-51.42","-12.17","4.55","-54.4","-89.96","0.0","4.371033333333333","1","0.0322917","0.770833","0.05625","0.0925926"
"128","50.4262514","12.5296481","893.0","829.0015258789062","-51.42","-12.17","4.55","-54.4","-89.96","0.0","4.371033333333333","1","0.0326823","0.782176","0.0591146","0.0939815"
"128","50.4262514","12.5296481","893.0","829.0015258789062","-51.42","-12.17","4.55","-54.4","-89.96","0.0","4.371033333333333","1","0.03125","0.881944","0.0541667","0.119444"
"129","50.4262514","12.5296481","893.0","829.0015258789062","-51.42","-12.17","4.55","-54.4","-89.96","0.0","4.371033333333333","1","0.0291667","0.894907","0.0557292","0.0990741"
"130","50.4262514","12.5296481","893.0","829.0015258789062","-51.42","-12.17","4.55","-54.4","-89.96","0.0","4.371033333333333","1","0.692578","0.886806","0.0554687","0.0958333"
"131","50.4262514","12.5296481","893.0","829.0015258789062","-51.42","-12.17","4.55","-54.4","-89.96","0.0","4.371033333333333","1","0.0266927","0.913889","0.0533854","0.0990741"
"131","50.4262514","12.5296481","893.0","829.0015258789062","-51.42","-12.17","4.55","-54.4","-89.96","0.0","4.371033333333333","1","0.692969","0.892824","0.0557292","0.0884259"
"132","50.4262631","12.5296262","893.0","829.0015258789062","-51.62","-8.83","3.73","-53.9","-89.97","0.0","4.6046000000000005","1","0.025651","0.92662","0.0513021","0.0976852"
"132","50.4262631","12.5296262","893.0","829.0015258789062","-51.62","-8.83","3.73","-53.9","-89.97","0.0","4.6046000000000005","1","0.0304688","0.815972","0.0567708","0.0912037"
"133","50.4262631","12.5296262","893.0","829.0015258789062","-51.62","-8.83","3.73","-53.9","-89.97","0.0","4.6046000000000005","1","0.0265625","0.932639","0.053125","0.0986111"
"134","50.4262631","12.5296262","893.0","829.0015258789062","-51.62","-8.83","3.73","-53.9","-89.97","0.0","4.6046000000000005","1","0.0290365","0.944444","0.0539063","0.108333"
"135","50.4262631","12.5296262","893.0","829.0015258789062","-51.62","-8.83","3.73","-53.9","-89.97","0.0","4.6046000000000005","1","0.031901","0.840278","0.0580729","0.0925926"
"135","50.4262631","12.5296262","893.0","829.0015258789062","-51.62","-8.83","3.73","-53.9","-89.97","0.0","4.6046000000000005","1","0.0276042","0.950463","0.0552083","0.0935185"
"136","50.4262631","12.5296262","893.0","829.0015258789062","-51.62","-8.83","3.73","-53.9","-89.97","0.0","4.6046000000000005","1","0.0303385","0.850694","0.0565104","0.0921296"
"136","50.4262631","12.5296262","893.0","829.0015258789062","-51.62","-8.83","3.73","-53.9","-89.97","0.0","4.6046000000000005","1","0.0252604","0.95787","0.0505208","0.0842593"
"137","50.4262631","12.5296262","893.0","829.0015258789062","-51.62","-8.83","3.73","-53.9","-89.97","0.0","4.6046000000000005","1","0.0289063","0.959028","0.0541667","0.0819444"
"137","50.4262631","12.5296262","893.0","829.0015258789062","-51.62","-8.83","3.73","-53.9","-89.97","0.0","4.6046000000000005","1","0.0286458","0.858796","0.0552083","0.0953704"
"138","50.4262631","12.5296262","893.0","829.0015258789062","-51.62","-8.83","3.73","-53.9","-89.97","0.0","4.6046000000000005","1","0.0272135","0.871065","0.0544271","0.0921296"
"139","50.4262748","12.5296043","893.0","827.0595703125","-52.25","-12.35","5.61","-53.74","-89.97","0.0","4.8048","1","0.0272135","0.877778","0.0544271","0.0898148"
"140","50.4262748","12.5296043","893.0","827.0595703125","-52.25","-12.35","5.61","-53.74","-89.97","0.0","4.8048","1","0.930208","0.0967593","0.05625","0.0888889"
"140","50.4262748","12.5296043","893.0","827.0595703125","-52.25","-12.35","5.61","-53.74","-89.97","0.0","4.8048","1","0.0289063","0.884028","0.0578125","0.0976852"
"141","50.4262748","12.5296043","893.0","827.0595703125","-52.25","-12.35","5.61","-53.74","-89.97","0.0","4.8048","1","0.0434896","0.147685","0.0619792","0.0962963"
"142","50.4262748","12.5296043","893.0","827.0595703125","-52.25","-12.35","5.61","-53.74","-89.97","0.0","4.8048","1","0.0421875","0.15787","0.059375","0.0944444"
"142","50.4262748","12.5296043","893.0","827.0595703125","-52.25","-12.35","5.61","-53.74","-89.97","0.0","4.8048","1","0.0283854","0.902778","0.0541667","0.0907407"
"143","50.4262748","12.5296043","893.0","827.0595703125","-52.25","-12.35","5.61","-53.74","-89.97","0.0","4.8048","1","0.0421875","0.165972","0.0567708","0.0939815"
"143","50.4262748","12.5296043","893.0","827.0595703125","-52.25","-12.35","5.61","-53.74","-89.97","0.0","4.8048","1","0.0279948","0.908796","0.0559896","0.0916667"
"143","50.4262748","12.5296043","893.0","827.0595703125","-52.25","-12.35","5.61","-53.74","-89.97","0.0","4.8048","1","0.614453","0.108333","0.0565104","0.100926"
"144","50.4262748","12.5296043","893.0","827.0595703125","-52.25","-12.35","5.61","-53.74","-89.97","0.0","4.8048","1","0.0269531","0.920602","0.0539063","0.102315"
"144","50.4262748","12.5296043","893.0","827.0595703125","-52.25","-12.35","5.61","-53.74","-89.97","0.0","4.8048","1","0.0398437","0.170833","0.0541667","0.0907407"
"145","50.4262868","12.529582","893.0","825.9418334960938","-52.52","-11.56","5.1","-54.01","-89.96","-0.01","4.971633333333333","1","0.708073","0.0293981","0.059375","0.0587963"
"145","50.4262868","12.529582","893.0","825.9418334960938","-52.52","-11.56","5.1","-54.01","-89.96","-0.01","4.971633333333333","1","0.614323","0.121296","0.05625","0.103704"
"145","50.4262868","12.529582","893.0","825.9418334960938","-52.52","-11.56","5.1","-54.01","-89.96","-0.01","4.971633333333333","1","0.727083","0.303935","0.0598958","0.0976852"
"145","50.4262868","12.529582","893.0","825.9418334960938","-52.52","-11.56","5.1","-54.01","-89.96","-0.01","4.971633333333333","1","0.0260417","0.928704","0.0520833","0.1"
"146","50.4262868","12.529582","893.0","825.9418334960938","-52.52","-11.56","5.1","-54.01","-89.96","-0.01","4.971633333333333","1","0.708724","0.0326389","0.0611979","0.0652778"
"146","50.4262868","12.529582","893.0","825.9418334960938","-52.52","-11.56","5.1","-54.01","-89.96","-0.01","4.971633333333333","1","0.038151","0.189815","0.0565104","0.0916667"
"146","50.4262868","12.529582","893.0","825.9418334960938","-52.52","-11.56","5.1","-54.01","-89.96","-0.01","4.971633333333333","1","0.614453","0.127546","0.0528646","0.102315"
"147","50.4262868","12.529582","893.0","825.9418334960938","-52.52","-11.56","5.1","-54.01","-89.96","-0.01","4.971633333333333","1","0.707552","0.0354167","0.0604167","0.0708333"
"147","50.4262868","12.529582","893.0","825.9418334960938","-52.52","-11.56","5.1","-54.01","-89.96","-0.01","4.971633333333333","1","0.614453","0.136111","0.0565104","0.1"
"147","50.4262868","12.529582","893.0","825.9418334960938","-52.52","-11.56","5.1","-54.01","-89.96","-0.01","4.971633333333333","1","0.0397135","0.198611","0.0622396","0.0981481"
"147","50.4262868","12.529582","893.0","825.9418334960938","-52.52","-11.56","5.1","-54.01","-89.96","-0.01","4.971633333333333","1","0.0278646","0.941435","0.0557292","0.0921296"
"148","50.4262868","12.529582","893.0","825.9418334960938","-52.52","-11.56","5.1","-54.01","-89.96","-0.01","4.971633333333333","1","0.613802","0.142824","0.0541667","0.0949074"
"148","50.4262868","12.529582","893.0","825.9418334960938","-52.52","-11.56","5.1","-54.01","-89.96","-0.01","4.971633333333333","1","0.704818","0.0363426","0.0580729","0.0726852"
"148","50.4262868","12.529582","893.0","825.9418334960938","-52.52","-11.56","5.1","-54.01","-89.96","-0.01","4.971633333333333","1","0.0403646","0.20463","0.0583333","0.0972222"
"149","50.4262868","12.529582","893.0","825.9418334960938","-52.52","-11.56","5.1","-54.01","-89.96","-0.01","4.971633333333333","1","0.0404948","0.2125","0.0580729","0.0898148"
"149","50.4262868","12.529582","893.0","825.9418334960938","-52.52","-11.56","5.1","-54.01","-89.96","-0.01","4.971633333333333","1","0.707031","0.0409722","0.0572917","0.0819444"
"149","50.4262868","12.529582","893.0","825.9418334960938","-52.52","-11.56","5.1","-54.01","-89.96","-0.01","4.971633333333333","1","0.611589","0.151157","0.0549479","0.099537"
"149","50.4262868","12.529582","893.0","825.9418334960938","-52.52","-11.56","5.1","-54.01","-89.96","-0.01","4.971633333333333","1","0.723828","0.330324","0.0611979","0.0949074"
"150","50.4263001","12.5295575","893.0","825.9418334960938","-52.24","-7.4","4.87","-54.17","-89.97","0.0","5.171833333333334","1","0.0425781","0.221065","0.0585938","0.0921296"
"150","50.4263001","12.5295575","893.0","825.9418334960938","-52.24","-7.4","4.87","-54.17","-89.97","0.0","5.171833333333334","1","0.61224","0.156019","0.0536458","0.0935185"
"151","50.4263001","12.5295575","893.0","825.9418334960938","-52.24","-7.4","4.87","-54.17","-89.97","0.0","5.171833333333334","1","0.70651","0.049537","0.0588542","0.0981481"
"151","50.4263001","12.5295575","893.0","825.9418334960938","-52.24","-7.4","4.87","-54.17","-89.97","0.0","5.171833333333334","1","0.0419271","0.228241","0.0546875","0.0925926"
"151","50.4263001","12.5295575","893.0","825.9418334960938","-52.24","-7.4","4.87","-54.17","-89.97","0.0","5.171833333333334","1","0.614323","0.163194","0.0536458","0.0939815"
"152","50.4263001","12.5295575","893.0","825.9418334960938","-52.24","-7.4","4.87","-54.17","-89.97","0.0","5.171833333333334","1","0.703646","0.055787","0.0609375","0.100463"
"152","50.4263001","12.5295575","893.0","825.9418334960938","-52.24","-7.4","4.87","-54.17","-89.97","0.0","5.171833333333334","1","0.613281","0.171065","0.0541667","0.0939815"
"152","50.4263001","12.5295575","893.0","825.9418334960938","-52.24","-7.4","4.87","-54.17","-89.97","0.0","5.171833333333334","1","0.0398437","0.235648","0.0557292","0.0935185"
"153","50.4263001","12.5295575","893.0","825.9418334960938","-52.24","-7.4","4.87","-54.17","-89.97","0.0","5.171833333333334","1","0.611589","0.180556","0.0585938","0.100926"
"153","50.4263001","12.5295575","893.0","825.9418334960938","-52.24","-7.4","4.87","-54.17","-89.97","0.0","5.171833333333334","1","0.704818","0.0643518","0.0580729","0.0990741"
"153","50.4263001","12.5295575","893.0","825.9418334960938","-52.24","-7.4","4.87","-54.17","-89.97","0.0","5.171833333333334","1","0.0389323","0.244676","0.0627604","0.100463"
"154","50.4263001","12.5295575","893.0","825.9418334960938","-52.24","-7.4","4.87","-54.17","-89.97","0.0","5.171833333333334","1","0.0361979","0.255093","0.0583333","0.0925926"
"154","50.4263001","12.5295575","893.0","825.9418334960938","-52.24","-7.4","4.87","-54.17","-89.97","0.0","5.171833333333334","1","0.705339","0.0706019","0.0606771","0.099537"
"154","50.4263001","12.5295575","893.0","825.9418334960938","-52.24","-7.4","4.87","-54.17","-89.97","0.0","5.171833333333334","1","0.610417","0.1875","0.0588542","0.10463"
"154","50.4263001","12.5295575","893.0","825.9418334960938","-52.24","-7.4","4.87","-54.17","-89.97","0.0","5.171833333333334","1","0.0950521","0.105787","0.0588542","0.100463"
"155","50.4263001","12.5295575","893.0","825.9418334960938","-52.24","-7.4","4.87","-54.17","-89.97","0.0","5.171833333333334","1","0.0367187","0.26412","0.059375","0.0949074"
"155","50.4263001","12.5295575","893.0","825.9418334960938","-52.24","-7.4","4.87","-54.17","-89.97","0.0","5.171833333333334","1","0.705339","0.0766204","0.0622396","0.100463"
"155","50.4263001","12.5295575","893.0","825.9418334960938","-52.24","-7.4","4.87","-54.17","-89.97","0.0","5.171833333333334","1","0.611068","0.195833","0.0570313","0.0981481"
"156","50.4263123","12.5295354","893.0","825.9418334960938","-51.55","-9.26","4.91","-54.27","-89.97","0.0","5.372033333333333","1","0.0380208","0.267824","0.0572917","0.0958333"
"156","50.4263123","12.5295354","893.0","825.9418334960938","-51.55","-9.26","4.91","-54.27","-89.97","0.0","5.372033333333333","1","0.610417","0.204398","0.0572917","0.0958333"
"156","50.4263123","12.5295354","893.0","825.9418334960938","-51.55","-9.26","4.91","-54.27","-89.97","0.0","5.372033333333333","1","0.704818","0.0856481","0.0627604","0.102778"
"156","50.4263123","12.5295354","893.0","825.9418334960938","-51.55","-9.26","4.91","-54.27","-89.97","0.0","5.372033333333333","1","0.0941406","0.119213","0.0580729","0.0939815"
"157","50.4263123","12.5295354","893.0","825.9418334960938","-51.55","-9.26","4.91","-54.27","-89.97","0.0","5.372033333333333","1","0.040625","0.274074","0.0619792","0.0944444"
"157","50.4263123","12.5295354","893.0","825.9418334960938","-51.55","-9.26","4.91","-54.27","-89.97","0.0","5.372033333333333","1","0.703125","0.0895833","0.0619792","0.104167"
"157","50.4263123","12.5295354","893.0","825.9418334960938","-51.55","-9.26","4.91","-54.27","-89.97","0.0","5.372033333333333","1","0.094401","0.128241","0.0611979","0.102778"
"157","50.4263123","12.5295354","893.0","825.9418334960938","-51.55","-9.26","4.91","-54.27","-89.97","0.0","5.372033333333333","1","0.611068","0.209722","0.0549479","0.0935185"
"158","50.4263123","12.5295354","893.0","825.9418334960938","-51.55","-9.26","4.91","-54.27","-89.97","0.0","5.372033333333333","1","0.0361979","0.28287","0.0625","0.100926"
"158","50.4263123","12.5295354","893.0","825.9418334960938","-51.55","-9.26","4.91","-54.27","-89.97","0.0","5.372033333333333","1","0.702604","0.0944444","0.059375","0.102778"
"158","50.4263123","12.5295354","893.0","825.9418334960938","-51.55","-9.26","4.91","-54.27","-89.97","0.0","5.372033333333333","1","0.0940104","0.135648","0.0557292","0.0935185"
"158","50.4263123","12.5295354","893.0","825.9418334960938","-51.55","-9.26","4.91","-54.27","-89.97","0.0","5.372033333333333","1","0.609896","0.216898","0.0541667","0.0976852"
"158","50.4263123","12.5295354","893.0","825.9418334960938","-51.55","-9.26","4.91","-54.27","-89.97","0.0","5.372033333333333","1","0.721615","0.396759","0.0640625","0.101852"
"159","50.4263123","12.5295354","893.0","825.9418334960938","-51.55","-9.26","4.91","-54.27","-89.97","0.0","5.372033333333333","1","0.610417","0.22662","0.05625","0.0939815"
"159","50.4263123","12.5295354","893.0","825.9418334960938","-51.55","-9.26","4.91","-54.27","-89.97","0.0","5.372033333333333","1","0.703646","0.101852","0.0604167","0.105556"
"159","50.4263123","12.5295354","893.0","825.9418334960938","-51.55","-9.26","4.91","-54.27","-89.97","0.0","5.372033333333333","1","0.0348958","0.292593","0.059375","0.0944444"
"159","50.4263123","12.5295354","893.0","825.9418334960938","-51.55","-9.26","4.91","-54.27","-89.97","0.0","5.372033333333333","1","0.0921875","0.140741","0.0552083","0.0907407"
"160","50.4263123","12.5295354","893.0","825.9418334960938","-51.55","-9.26","4.91","-54.27","-89.97","0.0","5.372033333333333","1","0.610547","0.23287","0.0544271","0.0916667"
"160","50.4263123","12.5295354","893.0","825.9418334960938","-51.55","-9.26","4.91","-54.27","-89.97","0.0","5.372033333333333","1","0.704297","0.113426","0.0591146","0.0981481"
"160","50.4263123","12.5295354","893.0","825.9418334960938","-51.55","-9.26","4.91","-54.27","-89.97","0.0","5.372033333333333","1","0.093099","0.149074","0.0580729","0.0888889"
"161","50.4263123","12.5295354","893.0","825.9418334960938","-51.55","-9.26","4.91","-54.27","-89.97","0.0","5.372033333333333","1","0.703776","0.118519","0.0638021","0.108333"
"161","50.4263123","12.5295354","893.0","825.9418334960938","-51.55","-9.26","4.91","-54.27","-89.97","0.0","5.372033333333333","1","0.0929687","0.155787","0.0588542","0.0939815"
"161","50.4263123","12.5295354","893.0","825.9418334960938","-51.55","-9.26","4.91","-54.27","-89.97","0.0","5.372033333333333","1","0.609375","0.238889","0.0572917","0.0972222"
"161","50.4263123","12.5295354","893.0","825.9418334960938","-51.55","-9.26","4.91","-54.27","-89.97","0.0","5.372033333333333","1","0.036849","0.311806","0.0622396","0.0986111"
"162","50.4263206","12.5295204","893.0","825.9418334960938","-50.77","-8.45","1.69","-53.84","-89.97","0.0","5.6056","1","0.702604","0.124074","0.0625","0.106481"
"162","50.4263206","12.5295204","893.0","825.9418334960938","-50.77","-8.45","1.69","-53.84","-89.97","0.0","5.6056","1","0.0921875","0.165972","0.0578125","0.0958333"
"162","50.4263206","12.5295204","893.0","825.9418334960938","-50.77","-8.45","1.69","-53.84","-89.97","0.0","5.6056","1","0.608333","0.246991","0.0546875","0.0958333"
