"Frame","Lat","Lon","Alt","Elevation","Yaw","Pitch","Roll","GimYaw","GimPitch","GimRoll","Timestamp","BoundingBoxClass","BoundingBoxCentre_X","BoundingBoxCentre_Y","BoundingBox_Width%","BoundingBox_Height%","BoundingBox_Lat","BoundingBox_Lon"
"1","","","","","","","","","","","","1","0.745573","0.815972","0.0515625","0.0837963"
"2","","","","","","","","","","","","1","0.742708","0.799306","0.0520833","0.0976852"
"3","","","","","","","","","","","","1","0.734896","0.774769","0.0463542","0.0791667"
"4","","","","","","","","","","","","1","0.725521","0.751852","0.046875","0.0814815"
"5","","","","","","","","","","","","1","0.717057","0.722685","0.0554687","0.087037"
"5","","","","","","","","","","","","1","0.130859","0.831944","0.0513021","0.0962963"
"6","50.4261505","12.529836","893.0","829.0015258789062","155.02","21.16","8.95","141.83","-34.27","0.0","0.3670333333333333","1","0.705339","0.688889","0.0549479","0.0925926","50.4261862677932","12.529542795653738"
"7","50.4261505","12.529836","893.0","829.0015258789062","155.02","21.16","8.95","141.83","-34.27","0.0","0.3670333333333333","1","0.692578","0.654167","0.0502604","0.0935185","50.42619218088441","12.529572891670767"
"8","50.4261505","12.529836","893.0","829.0015258789062","155.02","21.16","8.95","141.83","-34.27","0.0","0.3670333333333333","1","0.680859","0.621991","0.0507812","0.0837963","50.42619768413617","12.529600199270616"
"9","50.4261505","12.529836","893.0","829.0015258789062","155.02","21.16","8.95","141.83","-34.27","0.0","0.3670333333333333","1","0.667318","0.590278","0.0523437","0.0898148","50.42620206660462","12.529628816466287"
"10","50.4261505","12.529836","893.0","829.0015258789062","155.02","21.16","8.95","141.83","-34.27","0.0","0.3670333333333333","1","0.653516","0.552083","0.0481771","0.0856481","50.42620862441496","12.529660208443008"
"11","50.4261505","12.529836","893.0","829.0015258789062","155.02","21.16","8.95","141.83","-34.27","0.0","0.3670333333333333","1","0.638932","0.515278","0.0460938","0.0787037","50.42621429087121","12.529691411055937"
"12","50.4261503","12.5298354","893.0","829.0015258789062","167.86","15.57","5.93","150.72","-44.34","0.0","0.6006","1","0.624349","0.479167","0.0460938","0.0777778","50.42620744651383","12.529706031784759"
"14","50.4261503","12.5298354","893.0","829.0015258789062","167.86","15.57","5.93","150.72","-44.34","0.0","0.6006","1","0.59375","0.393056","0.0505208","0.0861111","50.426229231950295","12.529769610078352"
"15","50.4261503","12.5298354","893.0","829.0015258789062","167.86","15.57","5.93","150.72","-44.34","0.0","0.6006","1","0.888932","0.953704","0.0658854","0.0925926","50.42612023022684","12.529160940162479"
"15","50.4261503","12.5298354","893.0","829.0015258789062","167.86","15.57","5.93","150.72","-44.34","0.0","0.6006","1","0.76276","0.842361","0.0515625","0.0884259","50.42611654958747","12.529402489957915"
"15","50.4261503","12.5298354","893.0","829.0015258789062","167.86","15.57","5.93","150.72","-44.34","0.0","0.6006","1","0.576563","0.347917","0.0520833","0.0865741","50.42624030805804","12.529804039460878"
"16","50.4261503","12.5298354","893.0","829.0015258789062","167.86","15.57","5.93","150.72","-44.34","0.0","0.6006","1","0.869401","0.888889","0.0653646","0.109259","50.42614111828217","12.529226941954102"
"16","50.4261503","12.5298354","893.0","829.0015258789062","167.86","15.57","5.93","150.72","-44.34","0.0","0.6006","1","0.748958","0.778704","0.0541667","0.0888889","50.42613766069984","12.529447390838058"
"16","50.4261503","12.5298354","893.0","829.0015258789062","167.86","15.57","5.93","150.72","-44.34","0.0","0.6006","1","0.798568","0.690972","0.0632813","0.111574","50.42619487675897","12.529418033566953"
"16","50.4261503","12.5298354","893.0","829.0015258789062","167.86","15.57","5.93","150.72","-44.34","0.0","0.6006","1","0.5625","0.302315","0.05","0.087963","50.4262529595871","12.529835235467543"
"17","50.4261503","12.5298354","893.0","829.0015258789062","167.86","15.57","5.93","150.72","-44.34","0.0","0.6006","1","0.852083","0.818981","0.0619792","0.0953704","50.42616421318145","12.529287339429096"
"17","50.4261503","12.5298354","893.0","829.0015258789062","167.86","15.57","5.93","150.72","-44.34","0.0","0.6006","1","0.963281","0.712269","0.046875","0.0773148","50.426265103827625","12.529156525813393"
"17","50.4261503","12.5298354","893.0","829.0015258789062","167.86","15.57","5.93","150.72","-44.34","0.0","0.6006","1","0.736589","0.720139","0.0533854","0.0912037","50.426156729550414","12.529486586885199"
"17","50.4261503","12.5298354","893.0","829.0015258789062","167.86","15.57","5.93","150.72","-44.34","0.0","0.6006","1","0.783464","0.634028","0.0653646","0.113426","50.42621175536838","12.529460339907201"
"18","50.4261503","12.5298354","893.0","829.0015258789062","167.86","15.57","5.93","150.72","-44.34","0.0","0.6006","1","0.945964","0.64375","0.0419271","0.074537","50.42628614721832","12.529217905410473"
"18","50.4261503","12.5298354","893.0","829.0015258789062","167.86","15.57","5.93","150.72","-44.34","0.0","0.6006","1","0.720964","0.662269","0.0518229","0.0893519","50.42617382605078","12.529528160848322"
"18","50.4261503","12.5298354","893.0","829.0015258789062","167.86","15.57","5.93","150.72","-44.34","0.0","0.6006","1","0.838151","0.754398","0.0565104","0.099537","50.426185709627326","12.529336725341533"
"18","50.4261503","12.5298354","893.0","829.0015258789062","167.86","15.57","5.93","150.72","-44.34","0.0","0.6006","1","0.772266","0.576852","0.0601562","0.103704","50.42623023907842","12.529496348009824"
"18","50.4261503","12.5298354","893.0","829.0015258789062","167.86","15.57","5.93","150.72","-44.34","0.0","0.6006","1","0.567969","0.591204","0.0598958","0.110185","50.426141093853815","12.529729716888689"
"19","50.4261505","12.5298346","893.0","829.0015258789062","-178.06","8.36","-0.48","161.72","-57.44","0.0","0.8008000000000001","1","0.926823","0.578935","0.0421875","0.074537","50.4262335510999","12.529240364238671"
"19","50.4261505","12.5298346","893.0","829.0015258789062","-178.06","8.36","-0.48","161.72","-57.44","0.0","0.8008000000000001","1","0.823568","0.690509","0.0591146","0.0976852","50.42615027278475","12.529375033293585"
"19","50.4261505","12.5298346","893.0","829.0015258789062","-178.06","8.36","-0.48","161.72","-57.44","0.0","0.8008000000000001","1","0.754948","0.518287","0.0635417","0.106019","50.42620885545385","12.529515382817344"
"19","50.4261505","12.5298346","893.0","829.0015258789062","-178.06","8.36","-0.48","161.72","-57.44","0.0","0.8008000000000001","1","0.556901","0.540741","0.0580729","0.103704","50.426147376311974","12.529758094967692"
"19","50.4261505","12.5298346","893.0","829.0015258789062","-178.06","8.36","-0.48","161.72","-57.44","0.0","0.8008000000000001","1","0.707682","0.615046","0.0549479","0.0958333","50.42615353402473","12.529554935206681"
"20","50.4261505","12.5298346","893.0","829.0015258789062","-178.06","8.36","-0.48","161.72","-57.44","0.0","0.8008000000000001","1","0.808594","0.629398","0.0635417","0.103241","50.426174078626666","12.529413424527926"
"20","50.4261505","12.5298346","893.0","829.0015258789062","-178.06","8.36","-0.48","161.72","-57.44","0.0","0.8008000000000001","1","0.910677","0.516898","0.04375","0.0791667","50.42625771364411","12.529284061810927"
"20","50.4261505","12.5298346","893.0","829.0015258789062","-178.06","8.36","-0.48","161.72","-57.44","0.0","0.8008000000000001","1","0.544531","0.503009","0.05625","0.113426","50.426160356657945","12.529781154416556"
"20","50.4261505","12.5298346","893.0","829.0015258789062","-178.06","8.36","-0.48","161.72","-57.44","0.0","0.8008000000000001","1","0.697526","0.558565","0.0518229","0.0949074","50.426175576284656","12.529581366007703"
"20","50.4261505","12.5298346","893.0","829.0015258789062","-178.06","8.36","-0.48","161.72","-57.44","0.0","0.8008000000000001","1","0.741536","0.466435","0.0648438","0.115278","50.426228044068296","12.52954511629992"
"21","50.4261505","12.5298346","893.0","829.0015258789062","-178.06","8.36","-0.48","161.72","-57.44","0.0","0.8008000000000001","1","0.892839","0.455787","0.0471354","0.0810185","50.42628057551522","12.529328135860206"
"21","50.4261505","12.5298346","893.0","829.0015258789062","-178.06","8.36","-0.48","161.72","-57.44","0.0","0.8008000000000001","1","0.795833","0.576389","0.0583333","0.0944444","50.42619444347793","12.529445098215563"
"21","50.4261505","12.5298346","893.0","829.0015258789062","-178.06","8.36","-0.48","161.72","-57.44","0.0","0.8008000000000001","1","0.726042","0.412731","0.0671875","0.116204","50.426247424249446","12.529577354269623"
"21","50.4261505","12.5298346","893.0","829.0015258789062","-178.06","8.36","-0.48","161.72","-57.44","0.0","0.8008000000000001","1","0.680729","0.511574","0.0520833","0.0907407","50.42619158562182","12.52961346764248"
"21","50.4261505","12.5298346","893.0","829.0015258789062","-178.06","8.36","-0.48","161.72","-57.44","0.0","0.8008000000000001","1","0.530339","0.461343","0.0643229","0.121759","50.42617454417435","12.529807163333526"
"22","50.4261505","12.5298346","893.0","829.0015258789062","-178.06","8.36","-0.48","161.72","-57.44","0.0","0.8008000000000001","1","0.785677","0.522685","0.0588542","0.0907407","50.4262156528905","12.529472300031502"
"22","50.4261505","12.5298346","893.0","829.0015258789062","-178.06","8.36","-0.48","161.72","-57.44","0.0","0.8008000000000001","1","0.877865","0.398843","0.0494792","0.0865741","50.426302357427346","12.529364882388279"
"22","50.4261505","12.5298346","893.0","829.0015258789062","-178.06","8.36","-0.48","161.72","-57.44","0.0","0.8008000000000001","1","0.673437","0.461343","0.0536458","0.0884259","50.42621146382932","12.529633854753136"
"22","50.4261505","12.5298346","893.0","829.0015258789062","-178.06","8.36","-0.48","161.72","-57.44","0.0","0.8008000000000001","1","0.519271","0.419676","0.0640625","0.129167","50.42618954239705","12.52982944737388"
"23","50.4261505","12.5298346","893.0","829.0015258789062","-178.06","8.36","-0.48","161.72","-57.44","0.0","0.8008000000000001","1","0.771745","0.466898","0.0638021","0.106019","50.426236582751784","12.529504389454317"
"23","50.4261505","12.5298346","893.0","829.0015258789062","-178.06","8.36","-0.48","161.72","-57.44","0.0","0.8008000000000001","1","0.86276","0.33912","0.0494792","0.0856481","50.42632546208876","12.52940113896795"
"23","50.4261505","12.5298346","893.0","829.0015258789062","-178.06","8.36","-0.48","161.72","-57.44","0.0","0.8008000000000001","1","0.69974","0.31412","0.0666667","0.1125","50.42628382257737","12.529632426868329"
"23","50.4261505","12.5298346","893.0","829.0015258789062","-178.06","8.36","-0.48","161.72","-57.44","0.0","0.8008000000000001","1","0.658464","0.415278","0.0554687","0.0972222","50.42622747524468","12.529662627099972"
"24","50.4261505","12.5298346","893.0","829.0015258789062","-178.06","8.36","-0.48","161.72","-57.44","0.0","0.8008000000000001","1","0.756771","0.415741","0.0635417","0.101852","50.42625507912489","12.52953605138567"
"24","50.4261505","12.5298346","893.0","829.0015258789062","-178.06","8.36","-0.48","161.72","-57.44","0.0","0.8008000000000001","1","0.647266","0.371991","0.0559896","0.0930556","50.42624333933616","12.529685861460328"
"24","50.4261505","12.5298346","893.0","829.0015258789062","-178.06","8.36","-0.48","161.72","-57.44","0.0","0.8008000000000001","1","0.846484","0.285185","0.0497396","0.0796296","50.42634549842029","12.529436870354033"
"25","50.4261509","12.5298336","893.0","829.0015258789062","-162.95","5.32","-0.37","174.98","-69.06","0.0","0.9676333333333333","1","0.745443","0.369676","0.0638021","0.099537","50.42622948560312","12.52952367251201"
"26","50.4261509","12.5298336","893.0","829.0015258789062","-162.95","5.32","-0.37","174.98","-69.06","0.0","0.9676333333333333","1","0.734375","0.321759","0.0651042","0.108333","50.42625096495668","12.529541220363404"
"26","50.4261509","12.5298336","893.0","829.0015258789062","-162.95","5.32","-0.37","174.98","-69.06","0.0","0.9676333333333333","1","0.621094","0.286111","0.0578125","0.0972222","50.42625676874395","12.529693720694588"
"26","50.4261509","12.5298336","893.0","829.0015258789062","-162.95","5.32","-0.37","174.98","-69.06","0.0","0.9676333333333333","1","0.816927","0.177083","0.0505208","0.0856481","50.42633287462208","12.529424318075904"
"27","50.4261509","12.5298336","893.0","829.0015258789062","-162.95","5.32","-0.37","174.98","-69.06","0.0","0.9676333333333333","1","0.719922","0.277778","0.0658854","0.111111","50.4262703181662","12.5295629530919"
"28","50.4261509","12.5298336","893.0","829.0015258789062","-162.95","5.32","-0.37","174.98","-69.06","0.0","0.9676333333333333","1","0.710417","0.230324","0.059375","0.0976852","50.426292029953785","12.529577730840877"
"28","50.4261509","12.5298336","893.0","829.0015258789062","-162.95","5.32","-0.37","174.98","-69.06","0.0","0.9676333333333333","1","0.595443","0.210648","0.0565104","0.0953704","50.426289854340475","12.529730465583524"
"29","50.4261509","12.5298336","893.0","829.0015258789062","-162.95","5.32","-0.37","174.98","-69.06","0.0","0.9676333333333333","1","0.697526","0.188657","0.0643229","0.104167","50.42631078916707","12.52959675235417"
"30","50.4261513","12.5298327","893.0","829.0015258789062","-148.16","2.88","0.12","-170.83","-77.92","0.0","1.1011","1","0.684635","0.144676","0.0614583","0.103241","50.42601088336221","12.529552359556831"
"31","50.4261513","12.5298327","893.0","829.0015258789062","-148.16","2.88","0.12","-170.83","-77.92","0.0","1.1011","1","0.667969","0.108796","0.0635417","0.106481","50.42599171447245","12.529569221081923"
"32","50.4261513","12.5298327","893.0","829.0015258789062","-148.16","2.88","0.12","-170.83","-77.92","0.0","1.1011","1","0.65625","0.0680556","0.0598958","0.0990741","50.425970349224436","12.52957841680056"
"33","50.4261513","12.5298327","893.0","829.0015258789062","-148.16","2.88","0.12","-170.83","-77.92","0.0","1.1011","1","0.641797","0.0414352","0.0617188","0.0828704","50.425955535382805","12.529593546868611"
"42","50.4261524","12.5298299","893.0","829.0015258789062","-119.17","-5.83","13.11","-142.19","-87.15","0.0","1.6016000000000001","1","0.53125","0.953472","0.0572917","0.0930556","50.42633596497213","12.530001369970888"
"43","50.4261524","12.5298299","893.0","829.0015258789062","-119.17","-5.83","13.11","-142.19","-87.15","0.0","1.6016000000000001","1","0.539844","0.943287","0.0541667","0.0986111","50.426336298118265","12.529987711763239"
"44","50.4261524","12.5298299","893.0","829.0015258789062","-119.17","-5.83","13.11","-142.19","-87.15","0.0","1.6016000000000001","1","0.548047","0.934491","0.0528646","0.0930556","50.42633701298246","12.529975173224928"
"46","50.4261524","12.5298299","893.0","829.0015258789062","-119.17","-5.83","13.11","-142.19","-87.15","0.0","1.6016000000000001","1","0.566927","0.917593","0.0552083","0.0916667","50.42634008246092","12.529948045791366"
"47","50.4261524","12.5298299","893.0","829.0015258789062","-119.17","-5.83","13.11","-142.19","-87.15","0.0","1.6016000000000001","1","0.574219","0.907639","0.0578125","0.0939815","50.42633992265762","12.52993601396119"
"48","50.4261524","12.5298299","893.0","829.0015258789062","-119.17","-5.83","13.11","-142.19","-87.15","0.0","1.6016000000000001","1","0.58151","0.899769","0.0536458","0.0958333","50.42634061614066","12.529924982804177"
"49","50.4261535","12.5298267","893.0","829.0015258789062","-104.42","-14.1","19.4","-128.06","-88.16","0.0","1.6683333333333334","1","0.589323","0.891898","0.0546875","0.0986111","50.42632395009466","12.52998002058489"
"50","50.4261535","12.5298267","893.0","829.0015258789062","-104.42","-14.1","19.4","-128.06","-88.16","0.0","1.6683333333333334","1","0.598177","0.88287","0.0546875","0.0925926","50.42632705989074","12.529967732759168"
"56","50.4261554","12.5298222","893.0","829.0015258789062","-88.18","-18.08","18.65","-112.7","-88.78","0.0","1.9686333333333335","1","0.170052","0.107639","0.0703125","0.125463","50.4258096216539","12.529716214954641"
"57","50.4261554","12.5298222","893.0","829.0015258789062","-88.18","-18.08","18.65","-112.7","-88.78","0.0","1.9686333333333335","1","0.154297","0.130556","0.0653646","0.109259","50.4257997842853","12.52974087743779"
"58","50.4261554","12.5298222","893.0","829.0015258789062","-88.18","-18.08","18.65","-112.7","-88.78","0.0","1.9686333333333335","1","0.145703","0.163889","0.0726563","0.119444","50.42579954536906","12.529769684651546"
"59","50.4261554","12.5298222","893.0","829.0015258789062","-88.18","-18.08","18.65","-112.7","-88.78","0.0","1.9686333333333335","1","0.134896","0.190278","0.071875","0.113889","50.42579513095222","12.529794525718222"
"60","50.4261584","12.5298162","893.0","829.0015258789062","-72.17","-20.87","15.88","-95.19","-89.18","0.0","2.168833333333333","1","0.125521","0.22037","0.0734375","0.116667","50.42581284252644","12.529644670970008"
"61","50.4261584","12.5298162","893.0","829.0015258789062","-72.17","-20.87","15.88","-95.19","-89.18","0.0","2.168833333333333","1","0.155339","0.0395833","0.0658854","0.0791667","50.42582593063968","12.529494368121883"
"61","50.4261584","12.5298162","893.0","829.0015258789062","-72.17","-20.87","15.88","-95.19","-89.18","0.0","2.168833333333333","1","0.118099","0.250463","0.0742188","0.117593","50.42580746118857","12.529669098499966"
"62","50.4261584","12.5298162","893.0","829.0015258789062","-72.17","-20.87","15.88","-95.19","-89.18","0.0","2.168833333333333","1","0.146224","0.0520833","0.0736979","0.104167","50.42581755441365","12.529504817673969"
"62","50.4261584","12.5298162","893.0","829.0015258789062","-72.17","-20.87","15.88","-95.19","-89.18","0.0","2.168833333333333","1","0.111979","0.282639","0.0755208","0.120833","50.42580349193492","12.529695069940777"
"63","50.4261584","12.5298162","893.0","829.0015258789062","-72.17","-20.87","15.88","-95.19","-89.18","0.0","2.168833333333333","1","0.132552","0.0861111","0.0770833","0.118519","50.42580659901932","12.52953356435489"
"63","50.4261584","12.5298162","893.0","829.0015258789062","-72.17","-20.87","15.88","-95.19","-89.18","0.0","2.168833333333333","1","0.102734","0.305324","0.0700521","0.115278","50.425795132338216","12.529713670615381"
"64","50.4261584","12.5298162","893.0","829.0015258789062","-72.17","-20.87","15.88","-95.19","-89.18","0.0","2.168833333333333","1","0.119661","0.108102","0.0731771","0.121759","50.4257948216802","12.52955193692702"
"64","50.4261584","12.5298162","893.0","829.0015258789062","-72.17","-20.87","15.88","-95.19","-89.18","0.0","2.168833333333333","1","0.0973958","0.33287","0.0713542","0.119444","50.42579131787769","12.529735917962302"
"65","50.4261584","12.5298162","893.0","829.0015258789062","-72.17","-20.87","15.88","-95.19","-89.18","0.0","2.168833333333333","1","0.111979","0.134491","0.0786458","0.122685","50.425789189678355","12.529574108822288"
"65","50.4261584","12.5298162","893.0","829.0015258789062","-72.17","-20.87","15.88","-95.19","-89.18","0.0","2.168833333333333","1","0.091276","0.364583","0.0658854","0.116204","50.425786761285124","12.529761547236085"
"66","50.4261626","12.5298089","893.0","829.0015258789062","-60.74","-23.75","11.95","-79.54","-89.45","0.0","2.3690333333333333","1","0.100651","0.160185","0.0757812","0.118519","50.42583544771715","12.529436306701305"
"66","50.4261626","12.5298089","893.0","829.0015258789062","-60.74","-23.75","11.95","-79.54","-89.45","0.0","2.3690333333333333","1","0.0877604","0.390278","0.0677083","0.117593","50.42580845881622","12.529618288299092"
"67","50.4261626","12.5298089","893.0","829.0015258789062","-60.74","-23.75","11.95","-79.54","-89.45","0.0","2.3690333333333333","1","0.0951823","0.184954","0.0736979","0.123611","50.42582841145338","12.529454686049093"
"67","50.4261626","12.5298089","893.0","829.0015258789062","-60.74","-23.75","11.95","-79.54","-89.45","0.0","2.3690333333333333","1","0.0841146","0.417593","0.0703125","0.112963","50.425802362585635","12.529638432083603"
"67","50.4261626","12.5298089","893.0","829.0015258789062","-60.74","-23.75","11.95","-79.54","-89.45","0.0","2.3690333333333333","1","0.686849","0.681481","0.0580729","0.0981481","50.42629812460897","12.52998136904495"
"68","50.4261626","12.5298089","893.0","829.0015258789062","-60.74","-23.75","11.95","-79.54","-89.45","0.0","2.3690333333333333","1","0.0885417","0.206019","0.078125","0.134259","50.425820123289206","12.529469264453864"
"68","50.4261626","12.5298089","893.0","829.0015258789062","-60.74","-23.75","11.95","-79.54","-89.45","0.0","2.3690333333333333","1","0.0839844","0.437963","0.0809896","0.125926","50.42580060151405","12.5296543576201"
"69","50.4261626","12.5298089","893.0","829.0015258789062","-60.74","-23.75","11.95","-79.54","-89.45","0.0","2.3690333333333333","1","0.0826823","0.233102","0.0710938","0.120833","50.425812313363835","12.529489169918104"
"69","50.4261626","12.5298089","893.0","829.0015258789062","-60.74","-23.75","11.95","-79.54","-89.45","0.0","2.3690333333333333","1","0.0794271","0.462963","0.0692708","0.109259","50.42579343494905","12.529672337611112"
"69","50.4261626","12.5298089","893.0","829.0015258789062","-60.74","-23.75","11.95","-79.54","-89.45","0.0","2.3690333333333333","1","0.690234","0.662731","0.0596354","0.0958333","50.42630235474433","12.529968758336466"
"70","50.4261626","12.5298089","893.0","829.0015258789062","-60.74","-23.75","11.95","-79.54","-89.45","0.0","2.3690333333333333","1","0.0786458","0.252315","0.0697917","0.114815","50.425806819717565","12.529503270917392"
"70","50.4261626","12.5298089","893.0","829.0015258789062","-60.74","-23.75","11.95","-79.54","-89.45","0.0","2.3690333333333333","1","0.0782552","0.480324","0.0710938","0.109722","50.42579060946343","12.529685516666486"
"70","50.4261626","12.5298089","893.0","829.0015258789062","-60.74","-23.75","11.95","-79.54","-89.45","0.0","2.3690333333333333","1","0.690234","0.653241","0.0585938","0.0962963","50.4263030607104","12.529961924322244"
"71","50.4261626","12.5298089","893.0","829.0015258789062","-60.74","-23.75","11.95","-79.54","-89.45","0.0","2.3690333333333333","1","0.0733073","0.274306","0.0768229","0.125463","50.42579961946547","12.529519020520878"
"71","50.4261626","12.5298089","893.0","829.0015258789062","-60.74","-23.75","11.95","-79.54","-89.45","0.0","2.3690333333333333","1","0.077474","0.503935","0.0747396","0.118056","50.42578758994177","12.529703700187111"
"71","50.4261626","12.5298089","893.0","829.0015258789062","-60.74","-23.75","11.95","-79.54","-89.45","0.0","2.3690333333333333","1","0.691406","0.647917","0.05625","0.0930556","50.42630444490102","12.52995841387104"
"72","50.4261677","12.5298002","893.0","829.0015258789062","-54.28","-26.7","6.12","-69.04","-89.63","0.0","2.6026000000000002","1","0.0753906","0.522222","0.0690104","0.106481","50.42580561830954","12.529602001315325"
"72","50.4261677","12.5298002","893.0","829.0015258789062","-54.28","-26.7","6.12","-69.04","-89.63","0.0","2.6026000000000002","1","0.0675781","0.29213","0.0695312","0.110185","50.425835727723715","12.52942138000981"
"72","50.4261677","12.5298002","893.0","829.0015258789062","-54.28","-26.7","6.12","-69.04","-89.63","0.0","2.6026000000000002","1","0.692578","0.646759","0.0539063","0.0888889","50.426290879722394","12.529987474748795"
"73","50.4261677","12.5298002","893.0","829.0015258789062","-54.28","-26.7","6.12","-69.04","-89.63","0.0","2.6026000000000002","1","0.0651042","0.31088","0.0723958","0.119907","50.42583020392326","12.52943430834963"
"73","50.4261677","12.5298002","893.0","829.0015258789062","-54.28","-26.7","6.12","-69.04","-89.63","0.0","2.6026000000000002","1","0.0776042","0.53912","0.0760417","0.118056","50.42580484079041","12.52961588366677"
"73","50.4261677","12.5298002","893.0","829.0015258789062","-54.28","-26.7","6.12","-69.04","-89.63","0.0","2.6026000000000002","1","0.694141","0.642824","0.0544271","0.0893519","50.426292745061374","12.529985570371727"
"74","50.4261677","12.5298002","893.0","829.0015258789062","-54.28","-26.7","6.12","-69.04","-89.63","0.0","2.6026000000000002","1","0.060026","0.33125","0.0705729","0.10787","50.42582152384232","12.529446473438346"
"74","50.4261677","12.5298002","893.0","829.0015258789062","-54.28","-26.7","6.12","-69.04","-89.63","0.0","2.6026000000000002","1","0.0772135","0.55625","0.0726563","0.111574","50.42580116756395","12.529628279884284"
"74","50.4261677","12.5298002","893.0","829.0015258789062","-54.28","-26.7","6.12","-69.04","-89.63","0.0","2.6026000000000002","1","0.694661","0.638426","0.0523437","0.087037","50.42629385257826","12.529982821869007"
"75","50.4261677","12.5298002","893.0","829.0015258789062","-54.28","-26.7","6.12","-69.04","-89.63","0.0","2.6026000000000002","1","0.0583333","0.347685","0.0682292","0.112037","50.42581708299629","12.529458062123227"
"75","50.4261677","12.5298002","893.0","829.0015258789062","-54.28","-26.7","6.12","-69.04","-89.63","0.0","2.6026000000000002","1","0.0746094","0.575926","0.0778646","0.119444","50.42579454104888","12.529641199463386"
"75","50.4261677","12.5298002","893.0","829.0015258789062","-54.28","-26.7","6.12","-69.04","-89.63","0.0","2.6026000000000002","1","0.694661","0.635417","0.0507812","0.0847222","50.426294326845195","12.52998076279606"
"76","50.4261677","12.5298002","893.0","829.0015258789062","-54.28","-26.7","6.12","-69.04","-89.63","0.0","2.6026000000000002","1","0.0548177","0.362037","0.0752604","0.127778","50.425810917199065","12.52946662533696"
"76","50.4261677","12.5298002","893.0","829.0015258789062","-54.28","-26.7","6.12","-69.04","-89.63","0.0","2.6026000000000002","1","0.0764323","0.588426","0.0726563","0.112963","50.42579406094122","12.529651521985143"
"76","50.4261677","12.5298002","893.0","829.0015258789062","-54.28","-26.7","6.12","-69.04","-89.63","0.0","2.6026000000000002","1","0.696484","0.631944","0.0518229","0.0861111","50.42629633027868","12.52997930913196"
"77","50.4261677","12.5298002","893.0","829.0015258789062","-54.28","-26.7","6.12","-69.04","-89.63","0.0","2.6026000000000002","1","0.0511719","0.377083","0.0705729","0.119907","50.425804431597086","12.529475615600841"
"77","50.4261677","12.5298002","893.0","829.0015258789062","-54.28","-26.7","6.12","-69.04","-89.63","0.0","2.6026000000000002","1","0.0746094","0.603009","0.0742188","0.116204","50.42578916966182","12.529661181749884"
"78","50.4261677","12.5298002","893.0","829.0015258789062","-54.28","-26.7","6.12","-69.04","-89.63","0.0","2.6026000000000002","1","0.0505208","0.393981","0.0671875","0.110185","50.425800922656116","12.529488233298926"
"78","50.4261677","12.5298002","893.0","829.0015258789062","-54.28","-26.7","6.12","-69.04","-89.63","0.0","2.6026000000000002","1","0.0764323","0.614583","0.0716146","0.10787","50.42578881902936","12.529670799136149"
"78","50.4261677","12.5298002","893.0","829.0015258789062","-54.28","-26.7","6.12","-69.04","-89.63","0.0","2.6026000000000002","1","0.695964","0.621991","0.0528646","0.0847222","50.42629748717654","12.5299722475752"
"79","50.4261736","12.5297904","893.0","829.0015258789062","-50.85","-28.22","2.21","-62.71","-89.74","-0.01","2.8028","1","0.0485677","0.40162","0.0716146","0.11713","50.425827277992745","12.529420880620734"
"79","50.4261736","12.5297904","893.0","829.0015258789062","-50.85","-28.22","2.21","-62.71","-89.74","-0.01","2.8028","1","0.075651","0.62963","0.0716146","0.113889","50.42580148449457","12.52960629035528"
"79","50.4261736","12.5297904","893.0","829.0015258789062","-50.85","-28.22","2.21","-62.71","-89.74","-0.01","2.8028","1","0.695833","0.619907","0.053125","0.0851852","50.42629080667017","12.52998235935088"
"80","50.4261736","12.5297904","893.0","829.0015258789062","-50.85","-28.22","2.21","-62.71","-89.74","-0.01","2.8028","1","0.0454427","0.422222","0.0627604","0.102778","50.425819357056724","12.529433200952719"
"80","50.4261736","12.5297904","893.0","829.0015258789062","-50.85","-28.22","2.21","-62.71","-89.74","-0.01","2.8028","1","0.074349","0.643981","0.0679687","0.106481","50.42579640460902","12.529615308068477"
"80","50.4261736","12.5297904","893.0","829.0015258789062","-50.85","-28.22","2.21","-62.71","-89.74","-0.01","2.8028","1","0.695312","0.620602","0.053125","0.0856481","50.42629026898019","12.529982479265199"
"81","50.4261736","12.5297904","893.0","829.0015258789062","-50.85","-28.22","2.21","-62.71","-89.74","-0.01","2.8028","1","0.0457031","0.434491","0.0695312","0.119907","50.42581687201408","12.529442448109844"
"81","50.4261736","12.5297904","893.0","829.0015258789062","-50.85","-28.22","2.21","-62.71","-89.74","-0.01","2.8028","1","0.0765625","0.652778","0.071875","0.113889","50.42579643465861","12.52962313602547"
"81","50.4261736","12.5297904","893.0","829.0015258789062","-50.85","-28.22","2.21","-62.71","-89.74","-0.01","2.8028","1","0.695312","0.620602","0.0515625","0.0828704","50.42629026898019","12.529982479265199"
"82","50.4261736","12.5297904","893.0","829.0015258789062","-50.85","-28.22","2.21","-62.71","-89.74","-0.01","2.8028","1","0.046875","0.441667","0.0697917","0.12037","50.42581650080185","12.529448760854505"
"82","50.4261736","12.5297904","893.0","829.0015258789062","-50.85","-28.22","2.21","-62.71","-89.74","-0.01","2.8028","1","0.0766927","0.663889","0.0747396","0.12037","50.425793648496146","12.529630987075688"
"82","50.4261736","12.5297904","893.0","829.0015258789062","-50.85","-28.22","2.21","-62.71","-89.74","-0.01","2.8028","1","0.695312","0.621065","0.0526042","0.0837963","50.426290173935435","12.529982780487414"
"83","50.4261736","12.5297904","893.0","829.0015258789062","-50.85","-28.22","2.21","-62.71","-89.74","-0.01","2.8028","1","0.0451823","0.458333","0.0648438","0.108333","50.425810869873246","12.529459394865967"
"83","50.4261736","12.5297904","893.0","829.0015258789062","-50.85","-28.22","2.21","-62.71","-89.74","-0.01","2.8028","1","0.0763021","0.672222","0.065625","0.107407","50.42579102572867","12.529636509950901"
"83","50.4261736","12.5297904","893.0","829.0015258789062","-50.85","-28.22","2.21","-62.71","-89.74","-0.01","2.8028","1","0.694141","0.622685","0.0533854","0.0842593","50.426288954197425","12.529983087996978"
"84","50.4261736","12.5297904","893.0","829.0015258789062","-50.85","-28.22","2.21","-62.71","-89.74","-0.01","2.8028","1","0.0440104","0.466435","0.065625","0.10787","50.425807733459614","12.529464241694543"
"84","50.4261736","12.5297904","893.0","829.0015258789062","-50.85","-28.22","2.21","-62.71","-89.74","-0.01","2.8028","1","0.0777344","0.683102","0.0710938","0.110648","50.42578962902815","12.529645180533322"
"85","50.4261806","12.5297782","893.0","829.0015258789062","-49.47","-29.3","0.94","-59.22","-89.81","-0.01","2.9696333333333333","1","0.0424479","0.476852","0.0651042","0.109259","50.425823744579695","12.529423553820529"
"85","50.4261806","12.5297782","893.0","829.0015258789062","-49.47","-29.3","0.94","-59.22","-89.81","-0.01","2.9696333333333333","1","0.0742188","0.699537","0.0703125","0.113889","50.42579447241838","12.529604739587452"
"86","50.4261806","12.5297782","893.0","829.0015258789062","-49.47","-29.3","0.94","-59.22","-89.81","-0.01","2.9696333333333333","1","0.041276","0.48912","0.0638021","0.10787","50.425819287442124","12.52943100126595"
"86","50.4261806","12.5297782","893.0","829.0015258789062","-49.47","-29.3","0.94","-59.22","-89.81","-0.01","2.9696333333333333","1","0.0748698","0.707407","0.0648438","0.101852","50.42579277873272","12.529610587614862"
"86","50.4261806","12.5297782","893.0","829.0015258789062","-49.47","-29.3","0.94","-59.22","-89.81","-0.01","2.9696333333333333","1","0.697526","0.627083","0.0549479","0.0921296","50.42628971289525","12.529986698982068"
"87","50.4261806","12.5297782","893.0","829.0015258789062","-49.47","-29.3","0.94","-59.22","-89.81","-0.01","2.9696333333333333","1","0.0414063","0.503935","0.0697917","0.106944","50.42581549340405","12.529441495065026"
"87","50.4261806","12.5297782","893.0","829.0015258789062","-49.47","-29.3","0.94","-59.22","-89.81","-0.01","2.9696333333333333","1","0.0770833","0.716667","0.0708333","0.110185","50.425792271473895","12.529618676980684"
"88","50.4261806","12.5297782","893.0","829.0015258789062","-49.47","-29.3","0.94","-59.22","-89.81","-0.01","2.9696333333333333","1","0.0419271","0.510417","0.0640625","0.109722","50.42581431127604","12.529446527989672"
"88","50.4261806","12.5297782","893.0","829.0015258789062","-49.47","-29.3","0.94","-59.22","-89.81","-0.01","2.9696333333333333","1","0.0761719","0.725231","0.0669271","0.106019","50.425788714307195","12.529623686436809"
"88","50.4261806","12.5297782","893.0","829.0015258789062","-49.47","-29.3","0.94","-59.22","-89.81","-0.01","2.9696333333333333","1","0.695312","0.631019","0.0536458","0.0916667","50.426287186277044","12.529987609503104"
"89","50.4261806","12.5297782","893.0","829.0015258789062","-49.47","-29.3","0.94","-59.22","-89.81","-0.01","2.9696333333333333","1","0.0411458","0.52338","0.0619792","0.102315","50.42580999640852","12.529454791568124"
"89","50.4261806","12.5297782","893.0","829.0015258789062","-49.47","-29.3","0.94","-59.22","-89.81","-0.01","2.9696333333333333","1","0.0772135","0.735417","0.0690104","0.105093","50.425786669989115","12.52963142014262"
"89","50.4261806","12.5297782","893.0","829.0015258789062","-49.47","-29.3","0.94","-59.22","-89.81","-0.01","2.9696333333333333","1","0.697005","0.633565","0.0507812","0.0847222","50.42628784008481","12.52999042262442"
"90","50.4261883","12.5297642","893.0","829.0015258789062","-48.69","-29.82","0.83","-56.95","-89.86","0.0","3.1698333333333335","1","0.039974","0.53125","0.0632813","0.10787","50.425822683342425","12.529422185927407"
"90","50.4261883","12.5297642","893.0","829.0015258789062","-48.69","-29.82","0.83","-56.95","-89.86","0.0","3.1698333333333335","1","0.0790365","0.745139","0.0695312","0.10787","50.425797081813464","12.529601098803026"
"90","50.4261883","12.5297642","893.0","829.0015258789062","-48.69","-29.82","0.83","-56.95","-89.86","0.0","3.1698333333333335","1","0.696354","0.638889","0.0473958","0.0805556","50.42628831329751","12.529985701102824"
"91","50.4261883","12.5297642","893.0","829.0015258789062","-48.69","-29.82","0.83","-56.95","-89.86","0.0","3.1698333333333335","1","0.0375","0.541204","0.0619792","0.10463","50.42581720834828","12.529426363170755"
"91","50.4261883","12.5297642","893.0","829.0015258789062","-48.69","-29.82","0.83","-56.95","-89.86","0.0","3.1698333333333335","1","0.0761719","0.755093","0.0653646","0.112963","50.42579087022234","12.529605087208928"
"91","50.4261883","12.5297642","893.0","829.0015258789062","-48.69","-29.82","0.83","-56.95","-89.86","0.0","3.1698333333333335","1","0.695312","0.640972","0.0484375","0.0810185","50.426287058515186","12.529986199232674"
"92","50.4261883","12.5297642","893.0","829.0015258789062","-48.69","-29.82","0.83","-56.95","-89.86","0.0","3.1698333333333335","1","0.0389323","0.557176","0.0617188","0.101389","50.425814022245376","12.529438636121691"
"92","50.4261883","12.5297642","893.0","829.0015258789062","-48.69","-29.82","0.83","-56.95","-89.86","0.0","3.1698333333333335","1","0.0764323","0.764815","0.0710938","0.115741","50.425787908195254","12.52961170630277"
"92","50.4261883","12.5297642","893.0","829.0015258789062","-48.69","-29.82","0.83","-56.95","-89.86","0.0","3.1698333333333335","1","0.695312","0.644444","0.0505208","0.0842593","50.426286205726946","12.52998834681635"
"93","50.4261883","12.5297642","893.0","829.0015258789062","-48.69","-29.82","0.83","-56.95","-89.86","0.0","3.1698333333333335","1","0.0386719","0.565046","0.0648438","0.100463","50.42581142208137","12.529443674085183"
"93","50.4261883","12.5297642","893.0","829.0015258789062","-48.69","-29.82","0.83","-56.95","-89.86","0.0","3.1698333333333335","1","0.0770833","0.772917","0.0677083","0.106944","50.425785869452305","12.529617610182536"
"93","50.4261883","12.5297642","893.0","829.0015258789062","-48.69","-29.82","0.83","-56.95","-89.86","0.0","3.1698333333333335","1","0.694792","0.646759","0.0453125","0.0768519","50.42628526665545","12.529989385407692"
"94","50.4261883","12.5297642","893.0","829.0015258789062","-48.69","-29.82","0.83","-56.95","-89.86","0.0","3.1698333333333335","1","0.0365885","0.575463","0.0627604","0.103704","50.425806123284694","12.529448557859995"
"94","50.4261883","12.5297642","893.0","829.0015258789062","-48.69","-29.82","0.83","-56.95","-89.86","0.0","3.1698333333333335","1","0.077474","0.78125","0.0690104","0.108796","50.42578346691241","12.52962344089362"
"94","50.4261883","12.5297642","893.0","829.0015258789062","-48.69","-29.82","0.83","-56.95","-89.86","0.0","3.1698333333333335","1","0.694792","0.649306","0.0479167","0.0791667","50.42628464124142","12.52999096287548"
"95","50.4261883","12.5297642","893.0","829.0015258789062","-48.69","-29.82","0.83","-56.95","-89.86","0.0","3.1698333333333335","1","0.0365885","0.583333","0.0622396","0.1","50.425803761582166","12.529453854655626"
"95","50.4261883","12.5297642","893.0","829.0015258789062","-48.69","-29.82","0.83","-56.95","-89.86","0.0","3.1698333333333335","1","0.0746094","0.793981","0.0622396","0.10463","50.425776147771025","12.529629331481658"
"95","50.4261883","12.5297642","893.0","829.0015258789062","-48.69","-29.82","0.83","-56.95","-89.86","0.0","3.1698333333333335","1","0.695833","0.652778","0.0515625","0.0833333","50.426284530614254","12.52999390626845"
"96","50.4261975","12.5297474","893.0","829.0015258789062","-48.76","-30.32","1.95","-55.17","-89.89","0.0","3.370033333333333","1","0.0363281","0.593287","0.0554687","0.0958333","50.425815896198976","12.529424770023272"
"96","50.4261975","12.5297474","893.0","829.0015258789062","-48.76","-30.32","1.95","-55.17","-89.89","0.0","3.370033333333333","1","0.078776","0.8","0.0632813","0.0990741","50.42579035653562","12.529600281882319"
"96","50.4261975","12.5297474","893.0","829.0015258789062","-48.76","-30.32","1.95","-55.17","-89.89","0.0","3.370033333333333","1","0.696484","0.654861","0.0528646","0.0847222","50.42628904346677","12.529983459586578"
"97","50.4261975","12.5297474","893.0","829.0015258789062","-48.76","-30.32","1.95","-55.17","-89.89","0.0","3.370033333333333","1","0.036849","0.598843","0.0617188","0.106944","50.42581467844052","12.52942897175934"
"97","50.4261975","12.5297474","893.0","829.0015258789062","-48.76","-30.32","1.95","-55.17","-89.89","0.0","3.370033333333333","1","0.0809896","0.808102","0.0692708","0.109722","50.42578972858627","12.529607529592301"
"97","50.4261975","12.5297474","893.0","829.0015258789062","-48.76","-30.32","1.95","-55.17","-89.89","0.0","3.370033333333333","1","0.696354","0.662731","0.0515625","0.0884259","50.42628692468938","12.529988151749965"
"98","50.4261975","12.5297474","893.0","829.0015258789062","-48.76","-30.32","1.95","-55.17","-89.89","0.0","3.370033333333333","1","0.0367187","0.610185","0.0630208","0.107407","50.42581092697404","12.529436268079072"
"98","50.4261975","12.5297474","893.0","829.0015258789062","-48.76","-30.32","1.95","-55.17","-89.89","0.0","3.370033333333333","1","0.695833","0.665972","0.0510417","0.0865741","50.426285726254925","12.52998971435676"
"98","50.4261975","12.5297474","893.0","829.0015258789062","-48.76","-30.32","1.95","-55.17","-89.89","0.0","3.370033333333333","1","0.0783854","0.816898","0.0671875","0.111574","50.42578389182895","12.529610820631593"
"99","50.4261975","12.5297474","893.0","829.0015258789062","-48.76","-30.32","1.95","-55.17","-89.89","0.0","3.370033333333333","1","0.695833","0.671759","0.0515625","0.0851852","50.42628423513778","12.52999325088173"
"99","50.4261975","12.5297474","893.0","829.0015258789062","-48.76","-30.32","1.95","-55.17","-89.89","0.0","3.370033333333333","1","0.036849","0.615046","0.0632813","0.1125","50.42580950493766","12.529439588931485"
"99","50.4261975","12.5297474","893.0","829.0015258789062","-48.76","-30.32","1.95","-55.17","-89.89","0.0","3.370033333333333","1","0.0757812","0.827778","0.0734375","0.118519","50.425777234535815","12.529615475636097"
"100","50.4261975","12.5297474","893.0","829.0015258789062","-48.76","-30.32","1.95","-55.17","-89.89","0.0","3.370033333333333","1","0.695312","0.675463","0.0505208","0.0824074","50.42628291765589","12.529995101335144"
"100","50.4261975","12.5297474","893.0","829.0015258789062","-48.76","-30.32","1.95","-55.17","-89.89","0.0","3.370033333333333","1","0.0359375","0.633333","0.06875","0.112963","50.42580263201098","12.529450589537072"
"100","50.4261975","12.5297474","893.0","829.0015258789062","-48.76","-30.32","1.95","-55.17","-89.89","0.0","3.370033333333333","1","0.0761719","0.834259","0.0664062","0.103704","50.42577526149176","12.529620037368016"
"101","50.4261975","12.5297474","893.0","829.0015258789062","-48.76","-30.32","1.95","-55.17","-89.89","0.0","3.370033333333333","1","0.0347656","0.643056","0.0632813","0.100926","50.425798211328036","12.529455713441097"
"101","50.4261975","12.5297474","893.0","829.0015258789062","-48.76","-30.32","1.95","-55.17","-89.89","0.0","3.370033333333333","1","0.694141","0.677546","0.0486979","0.0810185","50.42628156539331","12.529995441211302"
"101","50.4261975","12.5297474","893.0","829.0015258789062","-48.76","-30.32","1.95","-55.17","-89.89","0.0","3.370033333333333","1","0.075651","0.844907","0.0679687","0.107407","50.42577077500776","12.52962648306896"
"102","50.4262071","12.52973","893.0","829.0015258789062","-49.43","-31.11","2.07","-54.35","-89.92","0.0","3.6036","1","0.0335938","0.64838","0.0619792","0.099537","50.42580749914956","12.529431580518667"
"102","50.4262071","12.52973","893.0","829.0015258789062","-49.43","-31.11","2.07","-54.35","-89.92","0.0","3.6036","1","0.696354","0.681481","0.0546875","0.087963","50.42628937864223","12.529984093520543"
"102","50.4262071","12.52973","893.0","829.0015258789062","-49.43","-31.11","2.07","-54.35","-89.92","0.0","3.6036","1","0.0770833","0.850694","0.0682292","0.106944","50.42578082233785","12.529604592644546"
"103","50.4262071","12.52973","893.0","829.0015258789062","-49.43","-31.11","2.07","-54.35","-89.92","0.0","3.6036","1","0.0339844","0.658102","0.0611979","0.102315","50.42580463228639","12.529438279360857"
"103","50.4262071","12.52973","893.0","829.0015258789062","-49.43","-31.11","2.07","-54.35","-89.92","0.0","3.6036","1","0.078125","0.858102","0.075","0.118981","50.42577908770287","12.529610328763397"
"103","50.4262071","12.52973","893.0","829.0015258789062","-49.43","-31.11","2.07","-54.35","-89.92","0.0","3.6036","1","0.695312","0.687963","0.0520833","0.0814815","50.426286953544064","12.529987185665751"
"104","50.4262071","12.52973","893.0","829.0015258789062","-49.43","-31.11","2.07","-54.35","-89.92","0.0","3.6036","1","0.0348958","0.664352","0.0619792","0.108333","50.425803476863706","12.529443285471547"
"104","50.4262071","12.52973","893.0","829.0015258789062","-49.43","-31.11","2.07","-54.35","-89.92","0.0","3.6036","1","0.695964","0.695833","0.0507812","0.0888889","50.42628533043946","12.529992518938618"
"104","50.4262071","12.52973","893.0","829.0015258789062","-49.43","-31.11","2.07","-54.35","-89.92","0.0","3.6036","1","0.0786458","0.868056","0.0744792","0.121296","50.42577581637484","12.529617229834164"
"105","50.4262071","12.52973","893.0","829.0015258789062","-49.43","-31.11","2.07","-54.35","-89.92","0.0","3.6036","1","0.0342448","0.669676","0.0596354","0.105093","50.425800973322076","12.529446026897734"
"105","50.4262071","12.52973","893.0","829.0015258789062","-49.43","-31.11","2.07","-54.35","-89.92","0.0","3.6036","1","0.695312","0.702083","0.0541667","0.0875","50.4262832347069","12.52999580500033"
"105","50.4262071","12.52973","893.0","829.0015258789062","-49.43","-31.11","2.07","-54.35","-89.92","0.0","3.6036","1","0.08125","0.871991","0.0770833","0.127315","50.42577701694467","12.529622173237032"
"106","50.4262071","12.52973","893.0","829.0015258789062","-49.43","-31.11","2.07","-54.35","-89.92","0.0","3.6036","1","0.034375","0.678935","0.0619792","0.110648","50.42579793904579","12.52945213689641"
"106","50.4262071","12.52973","893.0","829.0015258789062","-49.43","-31.11","2.07","-54.35","-89.92","0.0","3.6036","1","0.694141","0.708796","0.0507812","0.0824074","50.42628065937316","12.529998955519591"
"107","50.4262071","12.52973","893.0","829.0015258789062","-49.43","-31.11","2.07","-54.35","-89.92","0.0","3.6036","1","0.0326823","0.692361","0.0606771","0.102315","50.42579148392011","12.529459002708453"
"107","50.4262071","12.52973","893.0","829.0015258789062","-49.43","-31.11","2.07","-54.35","-89.92","0.0","3.6036","1","0.0752604","0.894907","0.0682292","0.111111","50.425761755513754","12.529631517443129"
"107","50.4262071","12.52973","893.0","829.0015258789062","-49.43","-31.11","2.07","-54.35","-89.92","0.0","3.6036","1","0.694792","0.711806","0.0489583","0.0810185","50.426280314319484","12.530001337500197"
"108","50.4262071","12.52973","893.0","829.0015258789062","-49.43","-31.11","2.07","-54.35","-89.92","0.0","3.6036","1","0.0335938","0.700926","0.059375","0.0990741","50.425789471822974","12.52946548992726"
"108","50.4262071","12.52973","893.0","829.0015258789062","-49.43","-31.11","2.07","-54.35","-89.92","0.0","3.6036","1","0.075651","0.9","0.0679687","0.109259","50.42576014724159","12.529635199276488"
"109","50.4262163","12.5297133","893.0","829.0015258789062","-50.07","-31.8","2.46","-53.93","-89.94","0.0","3.8038","1","0.0358073","0.708796","0.0596354","0.102778","50.425799501151296","12.529451396107078"
"109","50.4262163","12.5297133","893.0","829.0015258789062","-50.07","-31.8","2.46","-53.93","-89.94","0.0","3.8038","1","0.0753906","0.907639","0.0684896","0.109722","50.42576644698056","12.529618087630386"
"109","50.4262163","12.5297133","893.0","829.0015258789062","-50.07","-31.8","2.46","-53.93","-89.94","0.0","3.8038","1","0.695312","0.728704","0.0515625","0.0851852","50.42628409261299","12.529996261126009"
"109","50.4262163","12.5297133","893.0","829.0015258789062","-50.07","-31.8","2.46","-53.93","-89.94","0.0","3.8038","1","0.0391927","0.618981","0.0549479","0.087963","50.42583376737551","12.529397499087674"
"110","50.4262163","12.5297133","893.0","829.0015258789062","-50.07","-31.8","2.46","-53.93","-89.94","0.0","3.8038","1","0.0325521","0.716204","0.0630208","0.105556","50.42579336922986","12.529452687858614"
"111","50.4262163","12.5297133","893.0","829.0015258789062","-50.07","-31.8","2.46","-53.93","-89.94","0.0","3.8038","1","0.0333333","0.725231","0.0609375","0.106944","50.425790968829865","12.529459302933299"
"111","50.4262163","12.5297133","893.0","829.0015258789062","-50.07","-31.8","2.46","-53.93","-89.94","0.0","3.8038","1","0.693099","0.740972","0.0518229","0.0837963","50.42627930296067","12.530001971856"
"112","50.4262163","12.5297133","893.0","829.0015258789062","-50.07","-31.8","2.46","-53.93","-89.94","0.0","3.8038","1","0.0345052","0.731713","0.0596354","0.105093","50.42578989278172","12.529464693918088"
"112","50.4262163","12.5297133","893.0","829.0015258789062","-50.07","-31.8","2.46","-53.93","-89.94","0.0","3.8038","1","0.693099","0.743519","0.0497396","0.0842593","50.42627862255724","12.530003545382595"
"112","50.4262163","12.5297133","893.0","829.0015258789062","-50.07","-31.8","2.46","-53.93","-89.94","0.0","3.8038","1","0.0770833","0.933565","0.065625","0.100463","50.42575764393649","12.529636576424727"
"112","50.4262163","12.5297133","893.0","829.0015258789062","-50.07","-31.8","2.46","-53.93","-89.94","0.0","3.8038","1","0.0365885","0.645833","0.0554687","0.0953704","50.42582210418852","12.52941191218929"
"113","50.4262163","12.5297133","893.0","829.0015258789062","-50.07","-31.8","2.46","-53.93","-89.94","0.0","3.8038","1","0.031901","0.740046","0.0611979","0.106944","50.42578403720117","12.529467290932631"
"113","50.4262163","12.5297133","893.0","829.0015258789062","-50.07","-31.8","2.46","-53.93","-89.94","0.0","3.8038","1","0.692057","0.75","0.0528646","0.0888889","50.42627617785931","12.530006683496362"
"114","50.4262163","12.5297133","893.0","829.0015258789062","-50.07","-31.8","2.46","-53.93","-89.94","0.0","3.8038","1","0.0317708","0.750926","0.059375","0.100926","50.42577989829118","12.52947413881723"
"114","50.4262163","12.5297133","893.0","829.0015258789062","-50.07","-31.8","2.46","-53.93","-89.94","0.0","3.8038","1","0.694792","0.76088","0.0536458","0.0865741","50.42627513830102","12.530015740888642"
"115","50.4262284","12.5296909","893.0","829.0015258789062","-50.07","-31.8","2.46","-53.23","-89.94","0.0","3.9706333333333332","1","0.0304688","0.759954","0.0609375","0.101389","50.42578908561414","12.529447751148842"
"115","50.4262284","12.5296909","893.0","829.0015258789062","-50.07","-31.8","2.46","-53.23","-89.94","0.0","3.9706333333333332","1","0.0356771","0.667361","0.0552083","0.0875","50.42582820266534","12.529394654935402"
"115","50.4262284","12.5296909","893.0","829.0015258789062","-50.07","-31.8","2.46","-53.23","-89.94","0.0","3.9706333333333332","1","0.692969","0.769676","0.0526042","0.0837963","50.426281238956555","12.52999832648717"
"115","50.4262284","12.5296909","893.0","829.0015258789062","-50.07","-31.8","2.46","-53.23","-89.94","0.0","3.9706333333333332","1","0.732161","0.0877315","0.0664062","0.111574","50.42650646125933","12.529628191446223"
"116","50.4262284","12.5296909","893.0","829.0015258789062","-50.07","-31.8","2.46","-53.23","-89.94","0.0","3.9706333333333332","1","0.0315104","0.769676","0.0630208","0.109722","50.42578654097497","12.529455048826973"
"116","50.4262284","12.5296909","893.0","829.0015258789062","-50.07","-31.8","2.46","-53.23","-89.94","0.0","3.9706333333333332","1","0.692448","0.775926","0.0520833","0.0851852","50.42627917958658","12.53000175886753"
"117","50.4262284","12.5296909","893.0","829.0015258789062","-50.07","-31.8","2.46","-53.23","-89.94","0.0","3.9706333333333332","1","0.0334635","0.775926","0.0575521","0.0972222","50.42578629692468","12.529461102314304"
"117","50.4262284","12.5296909","893.0","829.0015258789062","-50.07","-31.8","2.46","-53.23","-89.94","0.0","3.9706333333333332","1","0.691406","0.781713","0.053125","0.0884259","50.42627689247496","12.530004464977969"
"118","50.4262284","12.5296909","893.0","829.0015258789062","-50.07","-31.8","2.46","-53.23","-89.94","0.0","3.9706333333333332","1","0.0330729","0.785185","0.059375","0.10463","50.42578232068651","12.52946657804367"
"118","50.4262284","12.5296909","893.0","829.0015258789062","-50.07","-31.8","2.46","-53.23","-89.94","0.0","3.9706333333333332","1","0.691927","0.79213","0.0526042","0.0851852","50.42627439447162","12.530011417083099"
"119","50.4262284","12.5296909","893.0","829.0015258789062","-50.07","-31.8","2.46","-53.23","-89.94","0.0","3.9706333333333332","1","0.0289063","0.796065","0.0578125","0.10787","50.42577349244914","12.529469090607183"
"119","50.4262284","12.5296909","893.0","829.0015258789062","-50.07","-31.8","2.46","-53.23","-89.94","0.0","3.9706333333333332","1","0.693099","0.799537","0.0513021","0.0824074","50.426273158457164","12.530017074620917"
"119","50.4262284","12.5296909","893.0","829.0015258789062","-50.07","-31.8","2.46","-53.23","-89.94","0.0","3.9706333333333332","1","0.730469","0.111111","0.0630208","0.100926","50.426497288539956","12.529641187670123"
"120","50.4262399","12.5296695","893.0","829.0015258789062","-50.07","-31.8","2.46","-52.97","-89.95","0.01","4.170833333333333","1","0.0322917","0.803935","0.0614583","0.106944","50.42578629914353","12.529453077824224"
"120","50.4262399","12.5296695","893.0","829.0015258789062","-50.07","-31.8","2.46","-52.97","-89.95","0.01","4.170833333333333","1","0.728776","0.122454","0.0679687","0.10787","50.42650385101438","12.529627237112786"
"121","50.4262399","12.5296695","893.0","829.0015258789062","-50.07","-31.8","2.46","-52.97","-89.95","0.01","4.170833333333333","1","0.0324219","0.815278","0.0570313","0.112963","50.425781954248336","12.529460429281732"
"122","50.4262399","12.5296695","893.0","829.0015258789062","-50.07","-31.8","2.46","-52.97","-89.95","0.01","4.170833333333333","1","0.0272135","0.828472","0.0544271","0.0921296","50.42577081269989","12.529463312774421"
"122","50.4262399","12.5296695","893.0","829.0015258789062","-50.07","-31.8","2.46","-52.97","-89.95","0.01","4.170833333333333","1","0.0348958","0.725694","0.0552083","0.0893519","50.42581884364037","12.529406370039538"
"123","50.4262399","12.5296695","893.0","829.0015258789062","-50.07","-31.8","2.46","-52.97","-89.95","0.01","4.170833333333333","1","0.0311198","0.83588","0.0575521","0.099537","50.42577221478667","12.529472190768763"
"124","50.4262399","12.5296695","893.0","829.0015258789062","-50.07","-31.8","2.46","-52.97","-89.95","0.01","4.170833333333333","1","0.0324219","0.84213","0.0580729","0.105556","50.42577113532171","12.529477557460124"
"125","50.4262399","12.5296695","893.0","829.0015258789062","-50.07","-31.8","2.46","-52.97","-89.95","0.01","4.170833333333333","1","0.0291667","0.856713","0.0583333","0.105093","50.425761437819126","12.52948347849453"
"126","50.4262514","12.5296481","893.0","829.0015258789062","-51.42","-12.17","4.55","-54.4","-89.96","0.0","4.371033333333333","1","0.0290365","0.866204","0.0580729","0.10463","50.42576610359291","12.529486952595349"
"127","50.4262514","12.5296481","893.0","829.0015258789062","-51.42","-12.17","4.55","-54.4","-89.96","0.0","4.371033333333333","1","0.028125","0.875463","0.05625","0.100926","50.42576122775268","12.529492155852978"
"127","50.4262514","12.5296481","893.0","829.0015258789062","-51.42","-12.17","4.55","-54.4","-89.96","0.0","4.371033333333333","1","0.0322917","0.770833","0.05625","0.0925926","50.425806992018664","12.529427976750448"
"128","50.4262514","12.5296481","893.0","829.0015258789062","-51.42","-12.17","4.55","-54.4","-89.96","0.0","4.371033333333333","1","0.0326823","0.782176","0.0591146","0.0939815","50.42580318504945","12.529435730981794"
"128","50.4262514","12.5296481","893.0","829.0015258789062","-51.42","-12.17","4.55","-54.4","-89.96","0.0","4.371033333333333","1","0.03125","0.881944","0.0541667","0.119444","50.42576219783056","12.529499571968351"
"129","50.4262514","12.5296481","893.0","829.0015258789062","-51.42","-12.17","4.55","-54.4","-89.96","0.0","4.371033333333333","1","0.0291667","0.894907","0.0557292","0.0990741","50.425754330373515","12.529506098555123"
"130","50.4262514","12.5296481","893.0","829.0015258789062","-51.42","-12.17","4.55","-54.4","-89.96","0.0","4.371033333333333","1","0.692578","0.886806","0.0554687","0.0958333","50.42627660901495","12.530029200543003"
"131","50.4262514","12.5296481","893.0","829.0015258789062","-51.42","-12.17","4.55","-54.4","-89.96","0.0","4.371033333333333","1","0.0266927","0.913889","0.0533854","0.0990741","50.4257432844672","12.529516306883005"
"131","50.4262514","12.5296481","893.0","829.0015258789062","-51.42","-12.17","4.55","-54.4","-89.96","0.0","4.371033333333333","1","0.692969","0.892824","0.0557292","0.0884259","50.42627524384087","12.530033565397966"
"132","50.4262631","12.5296262","893.0","829.0015258789062","-51.62","-8.83","3.73","-53.9","-89.97","0.0","4.6046000000000005","1","0.025651","0.92662","0.0513021","0.0976852","50.425748899222924","12.52949489237862"
"132","50.4262631","12.5296262","893.0","829.0015258789062","-51.62","-8.83","3.73","-53.9","-89.97","0.0","4.6046000000000005","1","0.0304688","0.815972","0.0567708","0.0912037","50.42580057743721","12.52942722433008"
"133","50.4262631","12.5296262","893.0","829.0015258789062","-51.62","-8.83","3.73","-53.9","-89.97","0.0","4.6046000000000005","1","0.0265625","0.932639","0.053125","0.0986111","50.42574732824802","12.529499830467248"
"134","50.4262631","12.5296262","893.0","829.0015258789062","-51.62","-8.83","3.73","-53.9","-89.97","0.0","4.6046000000000005","1","0.0290365","0.944444","0.0539063","0.108333","50.42574503873759","12.529510212525453"
"135","50.4262631","12.5296262","893.0","829.0015258789062","-51.62","-8.83","3.73","-53.9","-89.97","0.0","4.6046000000000005","1","0.031901","0.840278","0.0580729","0.0925926","50.42579255790949","12.529444456704226"
"135","50.4262631","12.5296262","893.0","829.0015258789062","-51.62","-8.83","3.73","-53.9","-89.97","0.0","4.6046000000000005","1","0.0276042","0.950463","0.0552083","0.0935185","50.42574058871846","12.529512824665936"
"136","50.4262631","12.5296262","893.0","829.0015258789062","-51.62","-8.83","3.73","-53.9","-89.97","0.0","4.6046000000000005","1","0.0303385","0.850694","0.0565104","0.0921296","50.42578657196116","12.529449633649728"
"136","50.4262631","12.5296262","893.0","829.0015258789062","-51.62","-8.83","3.73","-53.9","-89.97","0.0","4.6046000000000005","1","0.0252604","0.95787","0.0505208","0.0842593","50.425734349066026","12.529515472583341"
"137","50.4262631","12.5296262","893.0","829.0015258789062","-51.62","-8.83","3.73","-53.9","-89.97","0.0","4.6046000000000005","1","0.0289063","0.959028","0.0541667","0.0819444","50.425738277760125","12.529519890857092"
"137","50.4262631","12.5296262","893.0","829.0015258789062","-51.62","-8.83","3.73","-53.9","-89.97","0.0","4.6046000000000005","1","0.0286458","0.858796","0.0552083","0.0953704","50.42578131763139","12.529453186283492"
"138","50.4262631","12.5296262","893.0","829.0015258789062","-51.62","-8.83","3.73","-53.9","-89.97","0.0","4.6046000000000005","1","0.0272135","0.871065","0.0544271","0.0921296","50.42577458579098","12.529459749677304"
"139","50.4262748","12.5296043","893.0","827.0595703125","-52.25","-12.35","5.61","-53.74","-89.97","0.0","4.8048","1","0.0272135","0.877778","0.0544271","0.0898148","50.42576887383367","12.529435125893201"
"140","50.4262748","12.5296043","893.0","827.0595703125","-52.25","-12.35","5.61","-53.74","-89.97","0.0","4.8048","1","0.930208","0.0967593","0.05625","0.0888889","50.42674242296163","12.5297131796346"
"140","50.4262748","12.5296043","893.0","827.0595703125","-52.25","-12.35","5.61","-53.74","-89.97","0.0","4.8048","1","0.0289063","0.884028","0.0578125","0.0976852","50.425768199480245","12.529441131486296"
"141","50.4262748","12.5296043","893.0","827.0595703125","-52.25","-12.35","5.61","-53.74","-89.97","0.0","4.8048","1","0.0434896","0.147685","0.0619792","0.0962963","50.42602869565976","12.528944332588173"
"142","50.4262748","12.5296043","893.0","827.0595703125","-52.25","-12.35","5.61","-53.74","-89.97","0.0","4.8048","1","0.0421875","0.15787","0.059375","0.0944444","50.426024555690674","12.528950801536864"
"142","50.4262748","12.5296043","893.0","827.0595703125","-52.25","-12.35","5.61","-53.74","-89.97","0.0","4.8048","1","0.0283854","0.902778","0.0541667","0.0907407","50.42575933467102","12.529453285514885"
"143","50.4262748","12.5296043","893.0","827.0595703125","-52.25","-12.35","5.61","-53.74","-89.97","0.0","4.8048","1","0.0421875","0.165972","0.0567708","0.0939815","50.42602227037313","12.528957352531371"
"143","50.4262748","12.5296043","893.0","827.0595703125","-52.25","-12.35","5.61","-53.74","-89.97","0.0","4.8048","1","0.0279948","0.908796","0.0559896","0.0916667","50.425756179096744","12.529456969018316"
"143","50.4262748","12.5296043","893.0","827.0595703125","-52.25","-12.35","5.61","-53.74","-89.97","0.0","4.8048","1","0.614453","0.108333","0.0565104","0.100926","50.42646500449317","12.529457221289563"
"144","50.4262748","12.5296043","893.0","827.0595703125","-52.25","-12.35","5.61","-53.74","-89.97","0.0","4.8048","1","0.0269531","0.920602","0.0539063","0.102315","50.42574958850673","12.52946393375213"
"144","50.4262748","12.5296043","893.0","827.0595703125","-52.25","-12.35","5.61","-53.74","-89.97","0.0","4.8048","1","0.0398437","0.170833","0.0541667","0.0907407","50.42601860230066","12.528958012091568"
